[{"代碼": "0001", "學校名稱": "國立政治大學", "公/私立": "公立", "縣市名稱": "[38]臺北市", "地址": {"simple": "[116]臺北市文山區指南路二段64號", "advance": {"locate": {"lat": "24.987446", "lng": "121.576493", "no": "101", "bheigh2": "1", "bcount2": "1", "baddr2": "台北市", "bname2": "文山區", "village": "萬興里", "road": "指南路二段64號", "msg": "Success", "precision": "100"}}}, "電話": "(02)29393091", "網址": "http://www.nccu.edu.tw", "體系別": "[1]一般", "isLoseResource": false, "level": "大學"}, {"代碼": "0002", "學校名稱": "國立清華大學", "公/私立": "公立", "縣市名稱": "[18]新竹市", "地址": {"simple": "[300]新竹市東區光復路二段101號", "advance": {"locate": {"lat": "24.796367", "lng": "120.996866", "no": "暫無資料", "bheigh2": "1", "bcount2": "1", "baddr2": "新竹市", "bname2": "東區", "village": "光明里", "road": "光復路二段101號", "msg": "Success", "precision": "100"}}}, "電話": "(03)5715131", "網址": "http://www.nthu.edu.tw", "體系別": "[1]一般", "isLoseResource": false, "level": "大學"}, {"代碼": "0003", "學校名稱": "國立臺灣大學", "公/私立": "公立", "縣市名稱": "[33]臺北市", "地址": {"simple": "[106]臺北市大安區羅斯福路四段1號", "advance": {"locate": {"lat": "25.017049", "lng": "121.533648", "no": "100", "bheigh2": "1", "bcount2": "1", "baddr2": "台北市", "bname2": "大安區", "village": "學府里", "road": "羅斯福路四段1號", "msg": "Success", "precision": "100"}}}, "電話": "(02)33663366", "網址": "http://www.ntu.edu.tw", "體系別": "[1]一般", "isLoseResource": false, "level": "大學"}, {"代碼": "0004", "學校名稱": "國立臺灣師範大學", "公/私立": "公立", "縣市名稱": "[33]臺北市", "地址": {"simple": "[106]臺北市大安區和平東路一段162號", "advance": {"locate": {"lat": "25.02643", "lng": "121.525892", "no": "099", "bheigh2": "1", "bcount2": "1", "baddr2": "台北市", "bname2": "大安區", "village": "古莊里", "road": "和平東路一段162號", "msg": "Success", "precision": "100"}}}, "電話": "(02)77341111", "網址": "http://www.ntnu.edu.tw", "體系別": "[3]師範", "isLoseResource": false, "level": "大學"}, {"代碼": "0005", "學校名稱": "國立成功大學", "公/私立": "公立", "縣市名稱": "[21]臺南市", "地址": {"simple": "[701]臺南市東區大學路1號", "advance": {"locate": {"lat": "22.996317", "lng": "120.219527", "no": "097", "bheigh2": "1", "bcount2": "1", "baddr2": "台南市", "bname2": "東區", "village": "大學里", "road": "大學路1號", "msg": "Success", "precision": "100"}}}, "電話": "(06)2757575", "網址": "http://www.ncku.edu.tw", "體系別": "[1]一般", "isLoseResource": false, "level": "大學"}, {"代碼": "0006", "學校名稱": "國立中興大學", "公/私立": "公立", "縣市名稱": "[19]臺中市", "地址": {"simple": "[402]臺中市南區興大路145號", "advance": {"locate": {"lat": "24.123535", "lng": "120.675965", "no": "暫無資料", "bheigh2": "0", "bcount2": "0", "baddr2": "台中市", "bname2": "南區", "village": "積善里", "road": "興大路145號", "msg": "Success", "precision": "100"}}}, "電話": "(04)22873181", "網址": "http://www.nchu.edu.tw", "體系別": "[1]一般", "isLoseResource": false, "level": "大學"}, {"代碼": "0007", "學校名稱": "國立交通大學", "公/私立": "公立", "縣市名稱": "[18]新竹市", "地址": {"simple": "[300]新竹市東區大學路1001號", "advance": {"locate": {"lat": "24.784428", "lng": "120.997314", "no": "暫無資料", "bheigh2": "0", "bcount2": "0", "baddr2": "新竹市", "bname2": "東區", "village": "光明里", "road": "大學路1001號", "msg": "Success", "precision": "100"}}}, "電話": "(03)5712121", "網址": "http://www.nctu.edu.tw", "體系別": "[1]一般", "isLoseResource": false, "level": "大學"}, {"代碼": "0008", "學校名稱": "國立中央大學", "公/私立": "公立", "縣市名稱": "[03]桃園市", "地址": {"simple": "[320]桃園市中壢區中大路300號", "advance": {"locate": {"lat": "24.968256", "lng": "121.195305", "no": "暫無資料", "bheigh2": "1", "bcount2": "1", "baddr2": "桃園市", "bname2": "中壢區", "village": "五權里", "road": "中大路300號", "msg": "Success", "precision": "100"}}}, "電話": "(03)4227151", "網址": "http://www.ncu.edu.tw", "體系別": "[1]一般", "isLoseResource": false, "level": "大學"}, {"代碼": "0009", "學校名稱": "國立中山大學", "公/私立": "公立", "縣市名稱": "[52]高雄市", "地址": {"simple": "[804]高雄市鼓山區蓮海路70號", "advance": {"locate": {"lat": "22.626428", "lng": "120.266007", "no": "101", "bheigh2": "1", "bcount2": "1", "baddr2": "高雄市", "bname2": "鼓山區", "village": "桃源里", "road": "蓮海路70號", "msg": "Success", "precision": "100"}}}, "電話": "(07)5252000", "網址": "http://www.nsysu.edu.tw", "體系別": "[1]一般", "isLoseResource": false, "level": "大學"}, {"代碼": "0012", "學校名稱": "國立臺灣海洋大學", "公/私立": "公立", "縣市名稱": "[17]基隆市", "地址": {"simple": "[202]基隆市中正區北寧路2號", "advance": {"locate": {"lat": "25.150867", "lng": "121.772389", "no": "076", "bheigh2": "1", "bcount2": "1", "baddr2": "基隆市", "bname2": "中正區", "village": "海濱里", "road": "北寧路2號", "msg": "Success", "precision": "100"}}}, "電話": "(02)24622192", "網址": "http://www.ntou.edu.tw", "體系別": "[1]一般", "isLoseResource": false, "level": "大學"}, {"代碼": "0013", "學校名稱": "國立中正大學", "公/私立": "公立", "縣市名稱": "[10]嘉義縣", "地址": {"simple": "[621]嘉義縣民雄鄉三興村7鄰大學路一段168號", "advance": {"locate": {"lat": "23.562511", "lng": "120.474608", "no": "暫無資料", "bheigh2": "1", "bcount2": "1", "baddr2": "嘉義縣", "bname2": "民雄鄉", "village": "三興村", "road": "大學路一段168號", "msg": "Success", "precision": "100"}}}, "電話": "(05)2720411", "網址": "http://www.ccu.edu.tw", "體系別": "[1]一般", "isLoseResource": false, "level": "大學"}, {"代碼": "0014", "學校名稱": "國立高雄師範大學", "公/私立": "公立", "縣市名稱": "[58]高雄市", "地址": {"simple": "[802]高雄市苓雅區和平一路116號", "advance": {"locate": {"lat": "22.626629", "lng": "120.319936", "no": "096", "bheigh2": "1", "bcount2": "1", "baddr2": "高雄市", "bname2": "苓雅區", "village": "同慶里", "road": "和平一路116號", "msg": "Success", "precision": "100"}}}, "電話": "(07)7172930", "網址": "http://www.nknu.edu.tw", "體系別": "[3]師範", "isLoseResource": false, "level": "大學"}, {"代碼": "0015", "學校名稱": "國立彰化師範大學", "公/私立": "公立", "縣市名稱": "[07]彰化縣", "地址": {"simple": "[500]彰化縣彰化市進德路1號", "advance": {"locate": {"lat": "24.0815152", "lng": "120.5585597", "no": "暫無資料", "bheigh2": "1", "bcount2": "1", "baddr2": "彰化縣", "bname2": "彰化市", "village": "復興里", "road": "進德路1號", "msg": "Success", "precision": "100"}}}, "電話": "(04)7232105", "網址": "http://www.ncue.edu.tw", "體系別": "[3]師範", "isLoseResource": false, "level": "大學"}, {"代碼": "0016", "學校名稱": "國立陽明大學", "公/私立": "公立", "縣市名稱": "[42]臺北市", "地址": {"simple": "[112]臺北市北投區立農街二段155號", "advance": {"locate": {"lat": "25.119675", "lng": "121.513305", "no": "100", "bheigh2": "1", "bcount2": "1", "baddr2": "台北市", "bname2": "北投區", "village": "東華里", "road": "立農街二段155號", "msg": "Success", "precision": "100"}}}, "電話": "(02)28267000", "網址": "http://www.ym.edu.tw", "體系別": "[1]一般", "isLoseResource": false, "level": "大學"}, {"代碼": "0017", "學校名稱": "國立臺北大學", "公/私立": "公立", "縣市名稱": "[01]新北市", "地址": {"simple": "[237]新北市三峽區大學路151號", "advance": {"locate": {"lat": "24.945158", "lng": "121.373141", "no": "098", "bheigh2": "1", "bcount2": "1", "baddr2": "新北市", "bname2": "三峽區", "village": "龍埔里", "road": "大學路151號", "msg": "Success", "precision": "100"}}}, "電話": "(02)86741111", "網址": "http://www.ntpu.edu.tw/chinese/", "體系別": "[1]一般", "isLoseResource": false, "level": "大學"}, {"代碼": "0018", "學校名稱": "國立嘉義大學", "公/私立": "公立", "縣市名稱": "[20]嘉義市", "地址": {"simple": "[600]嘉義市東區鹿寮里學府路300號", "advance": {"locate": {"lat": "23.463728", "lng": "120.483469", "no": "暫無資料", "bheigh2": "1", "bcount2": "1", "baddr2": "嘉義市", "bname2": "東區", "village": "鹿寮里", "road": "學府路300號", "msg": "Success", "precision": "100"}}}, "電話": "(05)2717000", "網址": "http://www.ncyu.edu.tw", "體系別": "[1]一般", "isLoseResource": false, "level": "大學"}, {"代碼": "0019", "學校名稱": "國立高雄大學", "公/私立": "公立", "縣市名稱": "[54]高雄市", "地址": {"simple": "[811]高雄市楠梓區高雄大學路700號", "advance": {"locate": {"lat": "22.733851", "lng": "120.282755", "no": "101", "bheigh2": "1", "bcount2": "1", "baddr2": "高雄市", "bname2": "楠梓區", "village": "藍田里", "road": "高雄大學路700號", "msg": "Success", "precision": "100"}}}, "電話": "(07)5919000", "網址": "http://www.nuk.edu.tw", "體系別": "[1]一般", "isLoseResource": false, "level": "大學"}, {"代碼": "0020", "學校名稱": "國立東華大學", "公/私立": "公立", "縣市名稱": "[15]花蓮縣", "地址": {"simple": "[974]花蓮縣壽豐鄉志學村大學路二段1號", "advance": {"locate": {"lat": "23.892293", "lng": "121.54523", "no": "暫無資料", "bheigh2": "", "bcount2": "", "baddr2": "花蓮縣", "bname2": "壽豐鄉", "village": "志學村", "road": "大學路二段1號", "msg": "Success", "precision": "100"}}}, "電話": "(03)8903000", "網址": "http://www.ndhu.edu.tw", "體系別": "[1]一般", "isLoseResource": false, "level": "大學"}, {"代碼": "0021", "學校名稱": "國立暨南國際大學", "公/私立": "公立", "縣市名稱": "[08]南投縣", "地址": {"simple": "[545]南投縣埔里鎮大學路1號", "advance": {"locate": {"lat": "23.951198", "lng": "120.930894", "no": "暫無資料", "bheigh2": "1", "bcount2": "1", "baddr2": "南投縣", "bname2": "埔里鎮", "village": "桃米里", "road": "大學路1號", "msg": "Success", "precision": "100"}}}, "電話": "(049)2910960#2996", "網址": "http://www.ncnu.edu.tw", "體系別": "[1]一般", "isLoseResource": false, "level": "大學"}, {"代碼": "0022", "學校名稱": "國立臺灣科技大學", "公/私立": "公立", "縣市名稱": "[33]臺北市", "地址": {"simple": "[106]臺北市大安區基隆路四段43號", "advance": {"locate": {"lat": "25.013757", "lng": "121.540597", "no": "100", "bheigh2": "1", "bcount2": "1", "baddr2": "台北市", "bname2": "大安區", "village": "學府里", "road": "基隆路四段43號", "msg": "Success", "precision": "100"}}}, "電話": "(02)27333141", "網址": "http://www.ntust.edu.tw", "體系別": "[2]技職", "isLoseResource": false, "level": "大學"}, {"代碼": "0023", "學校名稱": "國立雲林科技大學", "公/私立": "公立", "縣市名稱": "[09]雲林縣", "地址": {"simple": "[640]雲林縣斗六市大學路三段123號", "advance": {"locate": {"lat": "23.694935", "lng": "120.534872", "no": "暫無資料", "bheigh2": "1", "bcount2": "1", "baddr2": "雲林縣", "bname2": "斗六市", "village": "龍潭里", "road": "大學路三段123號", "msg": "Success", "precision": "100"}}}, "電話": "(05)5342601", "網址": "http://www.yuntech.edu.tw", "體系別": "[2]技職", "isLoseResource": false, "level": "大學"}, {"代碼": "0024", "學校名稱": "國立屏東科技大學", "公/私立": "公立", "縣市名稱": "[13]屏東縣", "地址": {"simple": "[912]屏東縣內埔鄉老埤村學府路1號", "advance": {"locate": {"lat": "22.641196", "lng": "120.596084", "no": "暫無資料", "bheigh2": "1", "bcount2": "1", "baddr2": "屏東縣", "bname2": "內埔鄉", "village": "老埤村", "road": "學府路1號", "msg": "Success", "precision": "100"}}}, "電話": "(08)7703202", "網址": "http://www.npust.edu.tw", "體系別": "[2]技職", "isLoseResource": false, "level": "大學"}, {"代碼": "0025", "學校名稱": "國立臺北科技大學", "公/私立": "公立", "縣市名稱": "[33]臺北市", "地址": {"simple": "[106]臺北市大安區忠孝東路三段1號", "advance": {"locate": {"lat": "25.042233", "lng": "121.535485", "no": "097", "bheigh2": "1", "bcount2": "1", "baddr2": "台北市", "bname2": "大安區", "village": "民輝里", "road": "忠孝東路三段1號", "msg": "Success", "precision": "100"}}}, "電話": "(02)27712171", "網址": "http://www.ntut.edu.tw", "體系別": "[2]技職", "isLoseResource": false, "level": "大學"}, {"代碼": "0028", "學校名稱": "國立臺北藝術大學", "公/私立": "公立", "縣市名稱": "[42]臺北市", "地址": {"simple": "[112]臺北市北投區學園路1號", "advance": {"locate": {"lat": "25.129954", "lng": "121.466135", "no": "098", "bheigh2": "1", "bcount2": "1", "baddr2": "台北市", "bname2": "北投區", "village": "一德里", "road": "學園路1號", "msg": "Success", "precision": "100"}}}, "電話": "(02)28961000", "網址": "http://www.tnua.edu.tw", "體系別": "[1]一般", "isLoseResource": false, "level": "大學"}, {"代碼": "0029", "學校名稱": "國立臺灣藝術大學", "公/私立": "公立", "縣市名稱": "[01]新北市", "地址": {"simple": "[220]新北市板橋區大觀路一段59號", "advance": {"locate": {"lat": "25.005899", "lng": "121.447546", "no": "099", "bheigh2": "1", "bcount2": "1", "baddr2": "新北市", "bname2": "板橋區", "village": "浮洲里", "road": "大觀路一段59號", "msg": "Success", "precision": "100"}}}, "電話": "(02)22722181", "網址": "http://www.ntua.edu.tw", "體系別": "[1]一般", "isLoseResource": false, "level": "大學"}, {"代碼": "0030", "學校名稱": "國立臺東大學", "公/私立": "公立", "縣市名稱": "[14]臺東縣", "地址": {"simple": "[950]臺東縣臺東市大學路二段369號", "advance": {"locate": {"lat": "22.731204", "lng": "121.075706", "no": "暫無資料", "bheigh2": "暫無資料", "bcount2": "暫無資料", "baddr2": "台東縣", "bname2": "台東市", "village": "", "road": "大學路二段", "msg": "Success", "precision": "100"}}}, "電話": "(089)318855", "網址": "http://www.nttu.edu.tw", "體系別": "[1]一般", "isLoseResource": false, "level": "大學"}, {"代碼": "0031", "學校名稱": "國立宜蘭大學", "公/私立": "公立", "縣市名稱": "[02]宜蘭縣", "地址": {"simple": "[260]宜蘭縣宜蘭市神農路一段1號", "advance": {"locate": {"lat": "24.745338", "lng": "121.748029", "no": "暫無資料", "bheigh2": "1", "bcount2": "1", "baddr2": "宜蘭縣", "bname2": "宜蘭市", "village": "思源里", "road": "神農路一段1號", "msg": "Success", "precision": "100"}}}, "電話": "(03)9357400", "網址": "http://www.niu.edu.tw", "體系別": "[1]一般", "isLoseResource": false, "level": "大學"}, {"代碼": "0032", "學校名稱": "國立聯合大學", "公/私立": "公立", "縣市名稱": "[05]苗栗縣", "地址": {"simple": "[360]苗栗縣苗栗市恭敬里聯大1號", "advance": {"locate": {"lat": "24.545871", "lng": "120.812259", "no": "099", "bheigh2": "1", "bcount2": "1", "baddr2": "苗栗縣", "bname2": "苗栗市", "village": "恭敬里", "road": "聯大1號", "msg": "Success", "precision": "100"}}}, "電話": "(037)381000", "網址": "http://www.nuu.edu.tw", "體系別": "[1]一般", "isLoseResource": false, "level": "大學"}, {"代碼": "0033", "學校名稱": "國立虎尾科技大學", "公/私立": "公立", "縣市名稱": "[09]雲林縣", "地址": {"simple": "[632]雲林縣虎尾鎮文化路64號", "advance": {"locate": {"lat": "23.701684", "lng": "120.42959", "no": "暫無資料", "bheigh2": "1", "bcount2": "1", "baddr2": "雲林縣", "bname2": "虎尾鎮", "village": "西安里", "road": "文化路64號", "msg": "Success", "precision": "100"}}}, "電話": "(05)6315000", "網址": "http://www.nfu.edu.tw", "體系別": "[2]技職", "isLoseResource": false, "level": "大學"}, {"代碼": "0035", "學校名稱": "國立臺南藝術大學", "公/私立": "公立", "縣市名稱": "[11]臺南市", "地址": {"simple": "[720]臺南市官田區大崎里大崎66號", "advance": {"locate": {"lat": "23.18599", "lng": "120.37452", "no": "暫無資料", "bheigh2": "1", "bcount2": "1", "baddr2": "台南市", "bname2": "官田區", "village": "大崎村", "road": "大崎66號", "msg": "Success", "precision": "100"}}}, "電話": "(06)6930100", "網址": "http://www.tnnua.edu.tw", "體系別": "[1]一般", "isLoseResource": false, "level": "大學"}, {"代碼": "0036", "學校名稱": "國立臺南大學", "公/私立": "公立", "縣市名稱": "[21]臺南市", "地址": {"simple": "[700]臺南市中西區樹林街二段33號", "advance": {"locate": {"lat": "22.98498", "lng": "120.208043", "no": "暫無資料", "bheigh2": "1", "bcount2": "1", "baddr2": "台南市", "bname2": "中西區", "village": "五妃里", "road": "樹林街二段33號", "msg": "Success", "precision": "100"}}}, "電話": "(06)2133111", "網址": "http://web.nutn.edu.tw", "體系別": "[1]一般", "isLoseResource": false, "level": "大學"}, {"代碼": "0037", "學校名稱": "國立臺北教育大學", "公/私立": "公立", "縣市名稱": "[33]臺北市", "地址": {"simple": "[106]臺北市大安區和平東路二段134號", "advance": {"locate": {"lat": "25.024595", "lng": "121.544659", "no": "100", "bheigh2": "1", "bcount2": "1", "baddr2": "台北市", "bname2": "大安區", "village": "臥龍里", "road": "和平東路二段134號", "msg": "Success", "precision": "100"}}}, "電話": "(02)27321104", "網址": "http://www.ntue.edu.tw", "體系別": "[3]師範", "isLoseResource": false, "level": "大學"}, {"代碼": "0039", "學校名稱": "國立臺中教育大學", "公/私立": "公立", "縣市名稱": "[19]臺中市", "地址": {"simple": "[403]臺中市西區民生路140號", "advance": {"locate": {"lat": "24.143401", "lng": "120.671796", "no": "暫無資料", "bheigh2": "1", "bcount2": "1", "baddr2": "台中市", "bname2": "西區", "village": "平和里", "road": "民生路140號", "msg": "Success", "precision": "100"}}}, "電話": "(04)22183199", "網址": "http://www.ntcu.edu.tw", "體系別": "[3]師範", "isLoseResource": false, "level": "大學"}, {"代碼": "0042", "學校名稱": "國立澎湖科技大學", "公/私立": "公立", "縣市名稱": "[16]澎湖縣", "地址": {"simple": "[880]澎湖縣馬公市六合路300號", "advance": {"locate": {"lat": "23.573922", "lng": "119.58169", "no": "暫無資料", "bheigh2": "1", "bcount2": "1", "baddr2": "澎湖縣", "bname2": "馬公市", "village": "西衛里", "road": "六合路300號", "msg": "Success", "precision": "100"}}}, "電話": "(06)9264115", "網址": "http://www.npu.edu.tw", "體系別": "[2]技職", "isLoseResource": false, "level": "大學"}, {"代碼": "0043", "學校名稱": "國立勤益科技大學", "公/私立": "公立", "縣市名稱": "[06]臺中市", "地址": {"simple": "[411]臺中市太平區坪林里中山路二段57號", "advance": {"locate": {"lat": "24.146347", "lng": "120.73338", "no": "暫無資料", "bheigh2": "1", "bcount2": "1", "baddr2": "台中市", "bname2": "太平區", "village": "坪林里", "road": "中山路二段57號", "msg": "Success", "precision": "100"}}}, "電話": "(04)23924505", "網址": "http://www.ncut.edu.tw", "體系別": "[2]技職", "isLoseResource": false, "level": "大學"}, {"代碼": "0044", "學校名稱": "國立體育大學", "公/私立": "公立", "縣市名稱": "[03]桃園市", "地址": {"simple": "[333]桃園市龜山區文化一路250號", "advance": {"locate": {"lat": "25.031269", "lng": "121.387659", "no": "暫無資料", "bheigh2": "1", "bcount2": "1", "baddr2": "桃園市", "bname2": "龜山區", "village": "舊路里", "road": "文化一路250號", "msg": "Success", "precision": "100"}}}, "電話": "(03)3283201", "網址": "http://www.ntsu.edu.tw", "體系別": "[1]一般", "isLoseResource": false, "level": "大學"}, {"代碼": "0046", "學校名稱": "國立臺北護理健康大學", "公/私立": "公立", "縣市名稱": "[42]臺北市", "地址": {"simple": "[112]臺北市北投區明德路365號", "advance": {"locate": {"lat": "25.117609", "lng": "121.521426", "no": "097", "bheigh2": "1", "bcount2": "1", "baddr2": "台北市", "bname2": "北投區", "village": "振華里", "road": "明德路365號", "msg": "Success", "precision": "100"}}}, "電話": "(02)28227101", "網址": "http://www.ntunhs.edu.tw", "體系別": "[2]技職", "isLoseResource": false, "level": "大學"}, {"代碼": "0047", "學校名稱": "國立高雄餐旅大學", "公/私立": "公立", "縣市名稱": "[61]高雄市", "地址": {"simple": "[812]高雄市小港區松和路1號", "advance": {"locate": {"lat": "22.565712", "lng": "120.371526", "no": "098", "bheigh2": "1", "bcount2": "1", "baddr2": "高雄市", "bname2": "小港區", "village": "山明里", "road": "松和路1號", "msg": "Success", "precision": "100"}}}, "電話": "(07)8060505", "網址": "http://www.nkuht.edu.tw", "體系別": "[2]技職", "isLoseResource": false, "level": "大學"}, {"代碼": "0048", "學校名稱": "國立金門大學", "公/私立": "公立", "縣市名稱": "[71]金門縣", "地址": {"simple": "[892]金門縣金寧鄉大學路1號", "advance": {"locate": {"lat": "24.44829317", "lng": "118.32211675", "no": "暫無資料", "bheigh2": "1", "bcount2": "1", "baddr2": "金門縣", "bname2": "金寧鄉", "village": "盤山村", "road": "大學路1號", "msg": "Success", "precision": "100"}}}, "電話": "(082)313300", "網址": "http://www.nqu.edu.tw/cht/index.php", "體系別": "[1]一般", "isLoseResource": false, "level": "大學"}, {"代碼": "0049", "學校名稱": "國立臺灣體育運動大學", "公/私立": "公立", "縣市名稱": "[19]臺中市", "地址": {"simple": "[404]臺中市北區雙十路一段16號", "advance": {"locate": {"lat": "24.148707", "lng": "120.687637", "no": "暫無資料", "bheigh2": "1", "bcount2": "1", "baddr2": "台中市", "bname2": "北區", "village": "樂英里", "road": "雙十路一段16號", "msg": "Success", "precision": "100"}}}, "電話": "(04)22213108", "網址": "http://www.ntupes.edu.tw", "體系別": "[1]一般", "isLoseResource": false, "level": "大學"}, {"代碼": "0050", "學校名稱": "國立臺中科技大學", "公/私立": "公立", "縣市名稱": "[19]臺中市", "地址": {"simple": "[404]臺中市北區三民路三段129號", "advance": {"locate": {"lat": "24.150236", "lng": "120.684136", "no": "暫無資料", "bheigh2": "1", "bcount2": "1", "baddr2": "台中市", "bname2": "北區", "village": "錦平里", "road": "三民路三段129號", "msg": "Success", "precision": "100"}}}, "電話": "(04)22195678", "網址": "http://www.nutc.edu.tw/bin/home.php", "體系別": "[2]技職", "isLoseResource": false, "level": "大學"}, {"代碼": "0051", "學校名稱": "國立臺北商業大學", "公/私立": "公立", "縣市名稱": "[35]臺北市", "地址": {"simple": "[100]臺北市中正區濟南路一段321號", "advance": {"locate": {"lat": "25.041941", "lng": "121.525495", "no": "101", "bheigh2": "1", "bcount2": "1", "baddr2": "台北市", "bname2": "中正區", "village": "幸福里", "road": "濟南路一段321號", "msg": "Success", "precision": "100"}}}, "電話": "(02)33222777", "網址": "http://www.ntub.edu.tw", "體系別": "[2]技職", "isLoseResource": false, "level": "大學"}, {"代碼": "0052", "學校名稱": "國立屏東大學", "公/私立": "公立", "縣市名稱": "[13]屏東縣", "地址": {"simple": "[900]屏東縣屏東市民生路4-18號", "advance": {"locate": {"lat": "22.665355", "lng": "120.504465", "no": "暫無資料", "bheigh2": "1", "bcount2": "1", "baddr2": "屏東縣", "bname2": "屏東市", "village": "瑞光里", "road": "民生路4-18號", "msg": "Success", "precision": "100"}}}, "電話": "(08)7663800", "網址": "http://www.nptu.edu.tw", "體系別": "[1]一般", "isLoseResource": false, "level": "大學"}, {"代碼": "0053", "學校名稱": "國立高雄科技大學", "公/私立": "公立", "縣市名稱": "[55]高雄市", "地址": {"simple": "[807]高雄市三民區建工路415號", "advance": {"locate": {"lat": "22.651554", "lng": "120.328282", "no": "098", "bheigh2": "1", "bcount2": "1", "baddr2": "高雄市", "bname2": "三民區", "village": "寶珠里", "road": "建工路415號", "msg": "Success", "precision": "100"}}}, "電話": "(07)3814526", "網址": "http://www.nkust.edu.tw", "體系別": "[2]技職", "isLoseResource": false, "level": "大學"}, {"代碼": "1001", "學校名稱": "東海大學", "公/私立": "私立", "縣市名稱": "[19]臺中市", "地址": {"simple": "[407]臺中市西屯區臺灣大道四段1727號", "advance": {"locate": {"lat": "24.18238032", "lng": "120.60770857", "no": "暫無資料", "bheigh2": "", "bcount2": "", "baddr2": "台中市", "bname2": "西屯區", "village": "福恩里", "road": "台灣大道四段1727號", "msg": "Success", "precision": "100"}}}, "電話": "(04)23590121", "網址": "http://www.thu.edu.tw", "體系別": "[1]一般", "isLoseResource": false, "level": "大學"}, {"代碼": "1002", "學校名稱": "輔仁大學", "公/私立": "私立", "縣市名稱": "[01]新北市", "地址": {"simple": "[242]新北市新莊區中正路510號", "advance": {"locate": {"lat": "25.032965", "lng": "121.434083", "no": "101", "bheigh2": "1", "bcount2": "1", "baddr2": "新北市", "bname2": "新莊區", "village": "營盤里", "road": "中正路510號", "msg": "Success", "precision": "100"}}}, "電話": "(02)29052000", "網址": "http://www.fju.edu.tw", "體系別": "[1]一般", "isLoseResource": false, "level": "大學"}, {"代碼": "1003", "學校名稱": "東吳大學", "公/私立": "私立", "縣市名稱": "[41]臺北市", "地址": {"simple": "[111]臺北市士林區臨溪路70號", "advance": {"locate": {"lat": "25.094452", "lng": "121.545745", "no": "100", "bheigh2": "1", "bcount2": "1", "baddr2": "台北市", "bname2": "士林區", "village": "福林里", "road": "臨溪路70號", "msg": "Success", "precision": "100"}}}, "電話": "(02)28819471", "網址": "http://www.scu.edu.tw", "體系別": "[1]一般", "isLoseResource": false, "level": "大學"}, {"代碼": "1004", "學校名稱": "中原大學", "公/私立": "私立", "縣市名稱": "[03]桃園市", "地址": {"simple": "[320]桃園市中壢區中北路200號", "advance": {"locate": {"lat": "24.957309", "lng": "121.240357", "no": "暫無資料", "bheigh2": "1", "bcount2": "1", "baddr2": "桃園市", "bname2": "中壢區", "village": "普忠里", "road": "中北路200號", "msg": "Success", "precision": "100"}}}, "電話": "(03)2659999", "網址": "http://www.cycu.edu.tw", "體系別": "[1]一般", "isLoseResource": false, "level": "大學"}, {"代碼": "1005", "學校名稱": "淡江大學", "公/私立": "私立", "縣市名稱": "[01]新北市", "地址": {"simple": "[251]新北市淡水區英專路151號", "advance": {"locate": {"lat": "25.17382869", "lng": "121.44709907", "no": "101", "bheigh2": "1", "bcount2": "1", "baddr2": "新北市", "bname2": "淡水區", "village": "中興里", "road": "英專路151號", "msg": "Success", "precision": "100"}}}, "電話": "(02)26215656", "網址": "http://www.tku.edu.tw", "體系別": "[1]一般", "isLoseResource": false, "level": "大學"}, {"代碼": "1006", "學校名稱": "中國文化大學", "公/私立": "私立", "縣市名稱": "[41]臺北市", "地址": {"simple": "[111]臺北市士林區華岡路55號", "advance": {"locate": {"lat": "25.13753", "lng": "121.54032", "no": "094", "bheigh2": "1", "bcount2": "1", "baddr2": "台北市", "bname2": "士林區", "village": "陽明里", "road": "華岡路55號", "msg": "Success", "precision": "100"}}}, "電話": "(02)28610511", "網址": "http://www.pccu.edu.tw", "體系別": "[1]一般", "isLoseResource": false, "level": "大學"}, {"代碼": "1007", "學校名稱": "逢甲大學", "公/私立": "私立", "縣市名稱": "[19]臺中市", "地址": {"simple": "[407]臺中市西屯區文華路100號", "advance": {"locate": {"lat": "24.179315", "lng": "120.649994", "no": "暫無資料", "bheigh2": "1", "bcount2": "1", "baddr2": "台中市", "bname2": "西屯區", "village": "鵬程里", "road": "文華路100號", "msg": "Success", "precision": "100"}}}, "電話": "(04)24517250", "網址": "http://www.fcu.edu.tw", "體系別": "[1]一般", "isLoseResource": false, "level": "大學"}, {"代碼": "1008", "學校名稱": "靜宜大學", "公/私立": "私立", "縣市名稱": "[06]臺中市", "地址": {"simple": "[433]臺中市沙鹿區臺灣大道七段200號", "advance": {"locate": {"lat": "24.225756", "lng": "120.577225", "no": "暫無資料", "bheigh2": "0", "bcount2": "0", "baddr2": "台中市", "bname2": "沙鹿區", "village": "晉江里", "road": "台灣大道七段200號", "msg": "Success", "precision": "100"}}}, "電話": "(04)26328001", "網址": "http://www.pu.edu.tw", "體系別": "[1]一般", "isLoseResource": false, "level": "大學"}, {"代碼": "1009", "學校名稱": "長庚大學", "公/私立": "私立", "縣市名稱": "[03]桃園市", "地址": {"simple": "[333]桃園市龜山區文化一路259號", "advance": {"locate": {"lat": "25.034424", "lng": "121.391703", "no": "暫無資料", "bheigh2": "1", "bcount2": "1", "baddr2": "桃園市", "bname2": "龜山區", "village": "樂善里", "road": "文化一路259號", "msg": "Success", "precision": "100"}}}, "電話": "(03)2118800", "網址": "http://www.cgu.edu.tw", "體系別": "[1]一般", "isLoseResource": false, "level": "大學"}, {"代碼": "1010", "學校名稱": "元智大學", "公/私立": "私立", "縣市名稱": "[03]桃園市", "地址": {"simple": "[320]桃園市中壢區遠東路135號", "advance": {"locate": {"lat": "24.969239", "lng": "121.262951", "no": "暫無資料", "bheigh2": "1", "bcount2": "1", "baddr2": "桃園市", "bname2": "中壢區", "village": "興仁里", "road": "遠東路135號", "msg": "Success", "precision": "100"}}}, "電話": "(03)4638800", "網址": "http://www.yzu.edu.tw", "體系別": "[1]一般", "isLoseResource": false, "level": "大學"}, {"代碼": "1011", "學校名稱": "中華大學", "公/私立": "私立", "縣市名稱": "[18]新竹市", "地址": {"simple": "[300]新竹市香山區東香里五福路二段707號", "advance": {"locate": {"lat": "24.75735", "lng": "120.952322", "no": "暫無資料", "bheigh2": "1", "bcount2": "1", "baddr2": "新竹市", "bname2": "香山區", "village": "東香里", "road": "五福路二段707號", "msg": "Success", "precision": "100"}}}, "電話": "(03)5374281~5", "網址": "http://www.chu.edu.tw", "體系別": "[1]一般", "isLoseResource": false, "level": "大學"}, {"代碼": "1012", "學校名稱": "大葉大學", "公/私立": "私立", "縣市名稱": "[07]彰化縣", "地址": {"simple": "[515]彰化縣大村鄉學府路168號", "advance": {"locate": {"lat": "24.0012486", "lng": "120.5963162", "no": "暫無資料", "bheigh2": "1", "bcount2": "1", "baddr2": "彰化縣", "bname2": "大村鄉", "village": "福興村", "road": "學府路168號", "msg": "Success", "precision": "100"}}}, "電話": "(04)8511888", "網址": "http://www.dyu.edu.tw", "體系別": "[1]一般", "isLoseResource": false, "level": "大學"}, {"代碼": "1013", "學校名稱": "華梵大學", "公/私立": "私立", "縣市名稱": "[01]新北市", "地址": {"simple": "[223]新北市石碇區華梵路1號", "advance": {"locate": {"lat": "24.98002", "lng": "121.692057", "no": "098", "bheigh2": "1", "bcount2": "1", "baddr2": "新北市", "bname2": "石碇區", "village": "豐田村", "road": "華梵路1號", "msg": "Success", "precision": "100"}}}, "電話": "(02)26632102", "網址": "http://www.hfu.edu.tw", "體系別": "[1]一般", "isLoseResource": false, "level": "大學"}, {"代碼": "1014", "學校名稱": "義守大學", "公/私立": "私立", "縣市名稱": "[12]高雄市", "地址": {"simple": "[840]高雄市大樹區三和里學城路一段1號", "advance": {"locate": {"lat": "22.726331", "lng": "120.406437", "no": "098", "bheigh2": "1", "bcount2": "1", "baddr2": "高雄市", "bname2": "大樹區", "village": "三和里", "road": "學城路一段1號", "msg": "Success", "precision": "100"}}}, "電話": "(07)6577711", "網址": "http://www.isu.edu.tw", "體系別": "[1]一般", "isLoseResource": false, "level": "大學"}, {"代碼": "1015", "學校名稱": "世新大學", "公/私立": "私立", "縣市名稱": "[38]臺北市", "地址": {"simple": "[116]臺北市文山區木柵路一段17巷1號", "advance": {"locate": {"lat": "24.988627", "lng": "121.544063", "no": "096", "bheigh2": "1", "bcount2": "1", "baddr2": "台北市", "bname2": "文山區", "village": "試院里", "road": "木柵路一段17巷1號", "msg": "Success", "precision": "100"}}}, "電話": "(02)22368225", "網址": "http://www.shu.edu.tw", "體系別": "[1]一般", "isLoseResource": false, "level": "大學"}, {"代碼": "1016", "學校名稱": "銘傳大學", "公/私立": "私立", "縣市名稱": "[41]臺北市", "地址": {"simple": "[111]臺北市士林區中山北路五段250號", "advance": {"locate": {"lat": "25.087209", "lng": "121.526977", "no": "099", "bheigh2": "1", "bcount2": "1", "baddr2": "台北市", "bname2": "士林區", "village": "福林里", "road": "中山北路五段250號", "msg": "Success", "precision": "100"}}}, "電話": "(02)28824564", "網址": "http://www.mcu.edu.tw", "體系別": "[1]一般", "isLoseResource": false, "level": "大學"}, {"代碼": "1017", "學校名稱": "實踐大學", "公/私立": "私立", "縣市名稱": "[34]臺北市", "地址": {"simple": "[104]臺北市中山區大直街70號", "advance": {"locate": {"lat": "25.083596", "lng": "121.546216", "no": "098", "bheigh2": "1", "bcount2": "1", "baddr2": "台北市", "bname2": "中山區", "village": "大直里", "road": "大直街70號", "msg": "Success", "precision": "100"}}}, "電話": "(02)25381111", "網址": "http://www.usc.edu.tw", "體系別": "[1]一般", "isLoseResource": false, "level": "大學"}, {"代碼": "1018", "學校名稱": "朝陽科技大學", "公/私立": "私立", "縣市名稱": "[06]臺中市", "地址": {"simple": "[413]臺中市霧峰區吉峰東路168號", "advance": {"locate": {"lat": "24.06895", "lng": "120.71487", "no": "暫無資料", "bheigh2": "1", "bcount2": "1", "baddr2": "台中市", "bname2": "霧峰區", "village": "吉峰村", "road": "吉峰東路168號", "msg": "Success", "precision": "100"}}}, "電話": "(04)23323000", "網址": "http://www.cyut.edu.tw", "體系別": "[2]技職", "isLoseResource": false, "level": "大學"}, {"代碼": "1019", "學校名稱": "高雄醫學大學", "公/私立": "私立", "縣市名稱": "[55]高雄市", "地址": {"simple": "[807]高雄市三民區十全一路100號", "advance": {"locate": {"lat": "22.645167", "lng": "120.310016", "no": "101", "bheigh2": "1", "bcount2": "1", "baddr2": "高雄市", "bname2": "三民區", "village": "安生里", "road": "十全一路100號", "msg": "Success", "precision": "100"}}}, "電話": "(07)3121101", "網址": "http://www2.kmu.edu.tw", "體系別": "[1]一般", "isLoseResource": false, "level": "大學"}, {"代碼": "1020", "學校名稱": "南華大學", "公/私立": "私立", "縣市名稱": "[10]嘉義縣", "地址": {"simple": "[622]嘉義縣大林鎮南華路一段55號", "advance": {"locate": {"lat": "23.56936835", "lng": "120.4944118", "no": "暫無資料", "bheigh2": "1", "bcount2": "1", "baddr2": "嘉義縣", "bname2": "大林鎮", "village": "中坑里", "road": "南華路一段55號", "msg": "Success", "precision": "100"}}}, "電話": "(05)3102100", "網址": "http://www.nhu.edu.tw", "體系別": "[1]一般", "isLoseResource": false, "level": "大學"}, {"代碼": "1021", "學校名稱": "真理大學", "公/私立": "私立", "縣市名稱": "[01]新北市", "地址": {"simple": "[251]新北市淡水區真理街32號", "advance": {"locate": {"lat": "25.17555775", "lng": "121.43460124", "no": "093", "bheigh2": "1", "bcount2": "1", "baddr2": "新北市", "bname2": "淡水區", "village": "文化里", "road": "真理街32號", "msg": "Success", "precision": "100"}}}, "電話": "(02)26212121", "網址": "http://www.au.edu.tw", "體系別": "[1]一般", "isLoseResource": false, "level": "大學"}, {"代碼": "1022", "學校名稱": "大同大學", "公/私立": "私立", "縣市名稱": "[34]臺北市", "地址": {"simple": "[104]臺北市中山區中山北路三段40號", "advance": {"locate": {"lat": "25.066857", "lng": "121.522185", "no": "089", "bheigh2": "1", "bcount2": "1", "baddr2": "台北市", "bname2": "中山區", "village": "集英里", "road": "中山北路三段40號", "msg": "Success", "precision": "100"}}}, "電話": "(02)21822928", "網址": "http://www.ttu.edu.tw", "體系別": "[1]一般", "isLoseResource": false, "level": "大學"}, {"代碼": "1023", "學校名稱": "南臺科技大學", "公/私立": "私立", "縣市名稱": "[11]臺南市", "地址": {"simple": "[710]臺南市永康區尚頂里南臺街1號", "advance": {"locate": {"lat": "23.023535", "lng": "120.225435", "no": "暫無資料", "bheigh2": "1", "bcount2": "1", "baddr2": "台南市", "bname2": "永康區", "village": "尚頂里", "road": "南台街1號", "msg": "Success", "precision": "100"}}}, "電話": "(06)2533131", "網址": "http://www.stust.edu.tw", "體系別": "[2]技職", "isLoseResource": false, "level": "大學"}, {"代碼": "1024", "學校名稱": "崑山科技大學", "公/私立": "私立", "縣市名稱": "[11]臺南市", "地址": {"simple": "[710]臺南市永康區崑大路195號", "advance": {"locate": {"lat": "22.99836509", "lng": "120.25286", "no": "暫無資料", "bheigh2": "1", "bcount2": "1", "baddr2": "台南市", "bname2": "永康區", "village": "崑山里", "road": "崑大路195號", "msg": "Success", "precision": "100"}}}, "電話": "(06)2727175", "網址": "http://www.ksu.edu.tw", "體系別": "[2]技職", "isLoseResource": false, "level": "大學"}, {"代碼": "1025", "學校名稱": "嘉南藥理大學", "公/私立": "私立", "縣市名稱": "[11]臺南市", "地址": {"simple": "[717]臺南市仁德區二仁路一段60號", "advance": {"locate": {"lat": "22.920124", "lng": "120.225777", "no": "暫無資料", "bheigh2": "1", "bcount2": "1", "baddr2": "台南市", "bname2": "仁德區", "village": "保安里", "road": "二仁路一段60號", "msg": "Success", "precision": "100"}}}, "電話": "(06)2664911", "網址": "http://www.cnu.edu.tw", "體系別": "[2]技職", "isLoseResource": false, "level": "大學"}, {"代碼": "1026", "學校名稱": "樹德科技大學", "公/私立": "私立", "縣市名稱": "[12]高雄市", "地址": {"simple": "[824]高雄市燕巢區橫山路59號", "advance": {"locate": {"lat": "22.764563", "lng": "120.374968", "no": "099", "bheigh2": "1", "bcount2": "1", "baddr2": "高雄市", "bname2": "燕巢區", "village": "橫山里", "road": "橫山路59號", "msg": "Success", "precision": "100"}}}, "電話": "(07)6158000", "網址": "http://www.stu.edu.tw", "體系別": "[2]技職", "isLoseResource": false, "level": "大學"}, {"代碼": "1027", "學校名稱": "慈濟大學", "公/私立": "私立", "縣市名稱": "[15]花蓮縣", "地址": {"simple": "[970]花蓮縣花蓮市中央路三段701號", "advance": {"locate": {"lat": "23.99243555", "lng": "121.58937949", "no": "暫無資料", "bheigh2": "1", "bcount2": "1", "baddr2": "花蓮縣", "bname2": "花蓮市", "village": "國慶里", "road": "中央路三段701號", "msg": "Success", "precision": "100"}}}, "電話": "(03)8565301", "網址": "http://www.tcu.edu.tw", "體系別": "[1]一般", "isLoseResource": false, "level": "大學"}, {"代碼": "1028", "學校名稱": "臺北醫學大學", "公/私立": "私立", "縣市名稱": "[32]臺北市", "地址": {"simple": "[110]臺北市信義區吳興街250號", "advance": {"locate": {"lat": "25.026647", "lng": "121.562702", "no": "101", "bheigh2": "1", "bcount2": "1", "baddr2": "台北市", "bname2": "信義區", "village": "雙和里", "road": "吳興街250號", "msg": "Success", "precision": "100"}}}, "電話": "(02)27361661", "網址": "http://www.tmu.edu.tw", "體系別": "[1]一般", "isLoseResource": false, "level": "大學"}, {"代碼": "1029", "學校名稱": "中山醫學大學", "公/私立": "私立", "縣市名稱": "[19]臺中市", "地址": {"simple": "[402]臺中市南區建國北路一段110號", "advance": {"locate": {"lat": "24.121011", "lng": "120.650543", "no": "暫無資料", "bheigh2": "1", "bcount2": "1", "baddr2": "台中市", "bname2": "南區", "village": "樹德里", "road": "建國北路一段110號", "msg": "Success", "precision": "100"}}}, "電話": "(04)24730022", "網址": "http://www.csmu.edu.tw", "體系別": "[1]一般", "isLoseResource": false, "level": "大學"}, {"代碼": "1030", "學校名稱": "龍華科技大學", "公/私立": "私立", "縣市名稱": "[03]桃園市", "地址": {"simple": "[333]桃園市龜山區萬壽路一段300號", "advance": {"locate": {"lat": "25.017602", "lng": "121.402958", "no": "暫無資料", "bheigh2": "1", "bcount2": "1", "baddr2": "桃園市", "bname2": "龜山區", "village": "龍華里", "road": "萬壽路一段300號", "msg": "Success", "precision": "100"}}}, "電話": "(02)82093211", "網址": "http://www.lhu.edu.tw/", "體系別": "[2]技職", "isLoseResource": false, "level": "大學"}, {"代碼": "1031", "學校名稱": "輔英科技大學", "公/私立": "私立", "縣市名稱": "[12]高雄市", "地址": {"simple": "[831]高雄市大寮區進學路151號", "advance": {"locate": {"lat": "22.603831", "lng": "120.391263", "no": "098", "bheigh2": "1", "bcount2": "1", "baddr2": "高雄市", "bname2": "大寮區", "village": "永芳里", "road": "進學路151號", "msg": "Success", "precision": "100"}}}, "電話": "(07)7811151", "網址": "http://web.fy.edu.tw/bin/home.php", "體系別": "[2]技職", "isLoseResource": false, "level": "大學"}, {"代碼": "1032", "學校名稱": "明新科技大學", "公/私立": "私立", "縣市名稱": "[04]新竹縣", "地址": {"simple": "[304]新竹縣新豐鄉新興路1號", "advance": {"locate": {"lat": "24.864178", "lng": "120.990696", "no": "086", "bheigh2": "1", "bcount2": "1", "baddr2": "新竹縣", "bname2": "新豐鄉", "village": "松柏村", "road": "新興路1號", "msg": "Success", "precision": "100"}}}, "電話": "(03)5593142", "網址": "http://www.must.edu.tw", "體系別": "[2]技職", "isLoseResource": false, "level": "大學"}, {"代碼": "1033", "學校名稱": "長榮大學", "公/私立": "私立", "縣市名稱": "[11]臺南市", "地址": {"simple": "[711]臺南市歸仁區長大路1號", "advance": {"locate": {"lat": "22.90955", "lng": "120.273481", "no": "暫無資料", "bheigh2": "0", "bcount2": "0", "baddr2": "台南市", "bname2": "歸仁區", "village": "", "road": "長大路1號", "msg": "Success", "precision": "100"}}}, "電話": "(06)2785123", "網址": "http://www.cjcu.edu.tw", "體系別": "[1]一般", "isLoseResource": false, "level": "大學"}, {"代碼": "1034", "學校名稱": "弘光科技大學", "公/私立": "私立", "縣市名稱": "[06]臺中市", "地址": {"simple": "[433]臺中市沙鹿區臺灣大道六段1018號", "advance": {"locate": {"lat": "24.217459", "lng": "120.582542", "no": "暫無資料", "bheigh2": "0", "bcount2": "0", "baddr2": "台中市", "bname2": "沙鹿區", "village": "晉江里", "road": "台灣大道六段1018號", "msg": "Success", "precision": "100"}}}, "電話": "(04)26318652", "網址": "http://www.hk.edu.tw", "體系別": "[2]技職", "isLoseResource": false, "level": "大學"}, {"代碼": "1035", "學校名稱": "中國醫藥大學", "公/私立": "私立", "縣市名稱": "[19]臺中市", "地址": {"simple": "[404]臺中市北區學士路91號", "advance": {"locate": {"lat": "24.156344", "lng": "120.68112", "no": "暫無資料", "bheigh2": "1", "bcount2": "1", "baddr2": "台中市", "bname2": "北區", "village": "邱厝里", "road": "學士路91號", "msg": "Success", "precision": "100"}}}, "電話": "(04)22053366", "網址": "http://www.cmu.edu.tw", "體系別": "[1]一般", "isLoseResource": false, "level": "大學"}, {"代碼": "1036", "學校名稱": "健行科技大學", "公/私立": "私立", "縣市名稱": "[03]桃園市", "地址": {"simple": "[320]桃園市中壢區健行路229號", "advance": {"locate": {"lat": "24.94756613", "lng": "121.22835682", "no": "暫無資料", "bheigh2": "0", "bcount2": "0", "baddr2": "桃園市", "bname2": "中壢區", "village": "健行里", "road": "健行路229號", "msg": "Success", "precision": "100"}}}, "電話": "(03)4581196", "網址": "http://www.uch.edu.tw", "體系別": "[2]技職", "isLoseResource": false, "level": "大學"}, {"代碼": "1037", "學校名稱": "正修科技大學", "公/私立": "私立", "縣市名稱": "[12]高雄市", "地址": {"simple": "[833]高雄市鳥松區澄清路840號", "advance": {"locate": {"lat": "22.650734", "lng": "120.349663", "no": "101", "bheigh2": "1", "bcount2": "1", "baddr2": "高雄市", "bname2": "鳥松區", "village": "鳥松里", "road": "澄清路840號", "msg": "Success", "precision": "100"}}}, "電話": "(07)7358800", "網址": "http://www.csu.edu.tw/main.php", "體系別": "[2]技職", "isLoseResource": false, "level": "大學"}, {"代碼": "1038", "學校名稱": "萬能科技大學", "公/私立": "私立", "縣市名稱": "[03]桃園市", "地址": {"simple": "[320]桃園市中壢區萬能路1號", "advance": {"locate": {"lat": "24.99058533", "lng": "121.23251769", "no": "暫無資料", "bheigh2": "0", "bcount2": "0", "baddr2": "桃園市", "bname2": "中壢區", "village": "水尾里", "road": "萬能路1號", "msg": "Success", "precision": "100"}}}, "電話": "(03)4515811", "網址": "http://www.vnu.edu.tw/", "體系別": "[2]技職", "isLoseResource": false, "level": "大學"}, {"代碼": "1039", "學校名稱": "玄奘大學", "公/私立": "私立", "縣市名稱": "[18]新竹市", "地址": {"simple": "[300]新竹市香山區東香里玄奘路48號", "advance": {"locate": {"lat": "24.774877", "lng": "120.944005", "no": "暫無資料", "bheigh2": "1", "bcount2": "1", "baddr2": "新竹市", "bname2": "香山區", "village": "香村里", "road": "玄奘路48號", "msg": "Success", "precision": "100"}}}, "電話": "(03)5302255", "網址": "http://www.hcu.edu.tw", "體系別": "[1]一般", "isLoseResource": false, "level": "大學"}, {"代碼": "1040", "學校名稱": "建國科技大學", "公/私立": "私立", "縣市名稱": "[07]彰化縣", "地址": {"simple": "[500]彰化縣彰化市介壽北路1號", "advance": {"locate": {"lat": "24.0665839", "lng": "120.5493501", "no": "暫無資料", "bheigh2": "1", "bcount2": "1", "baddr2": "彰化縣", "bname2": "彰化市", "village": "建寶里", "road": "介壽北路1號", "msg": "Success", "precision": "100"}}}, "電話": "(04)7111111", "網址": "http://www.ctu.edu.tw", "體系別": "[2]技職", "isLoseResource": false, "level": "大學"}, {"代碼": "1041", "學校名稱": "明志科技大學", "公/私立": "私立", "縣市名稱": "[01]新北市", "地址": {"simple": "[243]新北市泰山區貴子里工專路84號", "advance": {"locate": {"lat": "25.040611", "lng": "121.422241", "no": "098", "bheigh2": "1", "bcount2": "1", "baddr2": "新北市", "bname2": "泰山區", "village": "貴子里", "road": "工專路84號", "msg": "Success", "precision": "100"}}}, "電話": "(02)29089899", "網址": "http://www.mcut.edu.tw/", "體系別": "[2]技職", "isLoseResource": false, "level": "大學"}, {"代碼": "1042", "學校名稱": "高苑科技大學", "公/私立": "私立", "縣市名稱": "[12]高雄市", "地址": {"simple": "[821]高雄市路竹區中山路1821號", "advance": {"locate": {"lat": "22.841035", "lng": "120.26643", "no": "097", "bheigh2": "1", "bcount2": "1", "baddr2": "高雄市", "bname2": "路竹區", "village": "竹南里", "road": "中山路1821號", "msg": "Success", "precision": "100"}}}, "電話": "(07)6077777", "網址": "http://www.kyu.edu.tw", "體系別": "[2]技職", "isLoseResource": false, "level": "大學"}, {"代碼": "1043", "學校名稱": "大仁科技大學", "公/私立": "私立", "縣市名稱": "[13]屏東縣", "地址": {"simple": "[907]屏東縣鹽埔鄉新二村維新路20號", "advance": {"locate": {"lat": "22.726811", "lng": "120.543115", "no": "暫無資料", "bheigh2": "1", "bcount2": "1", "baddr2": "屏東縣", "bname2": "鹽埔鄉", "village": "新二村", "road": "維新路20號", "msg": "Success", "precision": "100"}}}, "電話": "(08)7624002~5", "網址": "http://www.tajen.edu.tw", "體系別": "[2]技職", "isLoseResource": false, "level": "大學"}, {"代碼": "1044", "學校名稱": "聖約翰科技大學", "公/私立": "私立", "縣市名稱": "[01]新北市", "地址": {"simple": "[251]新北市淡水區淡金路四段499號", "advance": {"locate": {"lat": "25.22698396", "lng": "121.45167299", "no": "099", "bheigh2": "1", "bcount2": "1", "baddr2": "新北市", "bname2": "淡水區", "village": "賢孝里", "road": "淡金路四段499號", "msg": "Success", "precision": "100"}}}, "電話": "(02)28013131#7011", "網址": "http://www.sju.edu.tw/", "體系別": "[2]技職", "isLoseResource": false, "level": "大學"}, {"代碼": "1045", "學校名稱": "嶺東科技大學", "公/私立": "私立", "縣市名稱": "[19]臺中市", "地址": {"simple": "[408]臺中市南屯區嶺東路1號", "advance": {"locate": {"lat": "24.138192", "lng": "120.608198", "no": "暫無資料", "bheigh2": "1", "bcount2": "1", "baddr2": "台中市", "bname2": "南屯區", "village": "春社里", "road": "嶺東路1號", "msg": "Success", "precision": "100"}}}, "電話": "(04)23892088", "網址": "http://www.ltu.edu.tw", "體系別": "[2]技職", "isLoseResource": false, "level": "大學"}, {"代碼": "1046", "學校名稱": "中國科技大學", "公/私立": "私立", "縣市名稱": "[38]臺北市", "地址": {"simple": "[116]臺北市文山區興隆路三段56號", "advance": {"locate": {"lat": "24.99923", "lng": "121.555406", "no": "098", "bheigh2": "1", "bcount2": "1", "baddr2": "台北市", "bname2": "文山區", "village": "興得里", "road": "興隆路三段56號", "msg": "Success", "precision": "100"}}}, "電話": "(02)29313416", "網址": "http://www.cute.edu.tw/", "體系別": "[2]技職", "isLoseResource": false, "level": "大學"}, {"代碼": "1047", "學校名稱": "中臺科技大學", "公/私立": "私立", "縣市名稱": "[19]臺中市", "地址": {"simple": "[406]臺中市北屯區廍子路666號", "advance": {"locate": {"lat": "24.173878", "lng": "120.734886", "no": "暫無資料", "bheigh2": "1", "bcount2": "2", "baddr2": "台中市", "bname2": "北屯區", "village": "部子里", "road": "?子路666號", "msg": "Success", "precision": "100"}}}, "電話": "(04)22391647", "網址": "http://www.ctust.edu.tw", "體系別": "[2]技職", "isLoseResource": false, "level": "大學"}, {"代碼": "1048", "學校名稱": "亞洲大學", "公/私立": "私立", "縣市名稱": "[06]臺中市", "地址": {"simple": "[413]臺中市霧峰區柳豐路500號", "advance": {"locate": {"lat": "24.047197", "lng": "120.686621", "no": "暫無資料", "bheigh2": "1", "bcount2": "1", "baddr2": "台中市", "bname2": "霧峰區", "village": "南柳村", "road": "柳豐路500號", "msg": "Success", "precision": "100"}}}, "電話": "(04)23323456", "網址": "http://www.asia.edu.tw", "體系別": "[1]一般", "isLoseResource": false, "level": "大學"}, {"代碼": "1049", "學校名稱": "開南大學", "公/私立": "私立", "縣市名稱": "[03]桃園市", "地址": {"simple": "[338]桃園市蘆竹區開南路1號", "advance": {"locate": {"lat": "25.01079", "lng": "121.27157", "no": "暫無資料", "bheigh2": "", "bcount2": "", "baddr2": "桃園市", "bname2": "蘆竹區", "village": "新興里", "road": "開南路1號", "msg": "Success", "precision": "100"}}}, "電話": "(03)3412500", "網址": "http://www.knu.edu.tw", "體系別": "[1]一般", "isLoseResource": false, "level": "大學"}, {"代碼": "1050", "學校名稱": "佛光大學", "公/私立": "私立", "縣市名稱": "[02]宜蘭縣", "地址": {"simple": "[262]宜蘭縣礁溪鄉林美村林尾路160號", "advance": {"locate": {"lat": "24.81772577", "lng": "121.73163378", "no": "暫無資料", "bheigh2": "1", "bcount2": "1", "baddr2": "宜蘭縣", "bname2": "礁溪鄉", "village": "林美村", "road": "林尾路160號", "msg": "Success", "precision": "100"}}}, "電話": "(03)9871000", "網址": "http://www.fgu.edu.tw", "體系別": "[1]一般", "isLoseResource": false, "level": "大學"}, {"代碼": "1051", "學校名稱": "台南應用科技大學", "公/私立": "私立", "縣市名稱": "[11]臺南市", "地址": {"simple": "[710]臺南市永康區中正路529號", "advance": {"locate": {"lat": "23.039333", "lng": "120.238428", "no": "暫無資料", "bheigh2": "1", "bcount2": "1", "baddr2": "台南市", "bname2": "永康區", "village": "鹽行里", "road": "中正路529號", "msg": "Success", "precision": "100"}}}, "電話": "(06)2532106", "網址": "http://www.tut.edu.tw/", "體系別": "[2]技職", "isLoseResource": false, "level": "大學"}, {"代碼": "1052", "學校名稱": "遠東科技大學", "公/私立": "私立", "縣市名稱": "[11]臺南市", "地址": {"simple": "[744]臺南市新市區中華路49號", "advance": {"locate": {"lat": "23.06479", "lng": "120.294865", "no": "暫無資料", "bheigh2": "1", "bcount2": "1", "baddr2": "台南市", "bname2": "新市區", "village": "永就村", "road": "中華路49號", "msg": "Success", "precision": "100"}}}, "電話": "(06)5979566", "網址": "http://www.feu.edu.tw", "體系別": "[2]技職", "isLoseResource": false, "level": "大學"}, {"代碼": "1053", "學校名稱": "元培醫事科技大學", "公/私立": "私立", "縣市名稱": "[18]新竹市", "地址": {"simple": "[300]新竹市香山區元培街306號", "advance": {"locate": {"lat": "24.777828", "lng": "120.940423", "no": "暫無資料", "bheigh2": "1", "bcount2": "1", "baddr2": "新竹市", "bname2": "香山區", "village": "香村里", "road": "元培街306號", "msg": "Success", "precision": "100"}}}, "電話": "(03)5381183", "網址": "http://www.ypu.edu.tw/", "體系別": "[2]技職", "isLoseResource": false, "level": "大學"}, {"代碼": "1054", "學校名稱": "景文科技大學", "公/私立": "私立", "縣市名稱": "[01]新北市", "地址": {"simple": "[231]新北市新店區安忠路99號", "advance": {"locate": {"lat": "24.952008", "lng": "121.509246", "no": "094", "bheigh2": "1", "bcount2": "1", "baddr2": "新北市", "bname2": "新店區", "village": "公崙里", "road": "安忠路99號", "msg": "Success", "precision": "100"}}}, "電話": "(02)82122000", "網址": "http://www.just.edu.tw/", "體系別": "[2]技職", "isLoseResource": false, "level": "大學"}, {"代碼": "1055", "學校名稱": "中華醫事科技大學", "公/私立": "私立", "縣市名稱": "[11]臺南市", "地址": {"simple": "[717]臺南市仁德區文華一街89號", "advance": {"locate": {"lat": "22.96097509", "lng": "120.243336", "no": "暫無資料", "bheigh2": "1", "bcount2": "1", "baddr2": "台南市", "bname2": "仁德區", "village": "仁德里", "road": "文華一街89號", "msg": "Success", "precision": "100"}}}, "電話": "(06)2674567", "網址": "http://www.hwai.edu.tw", "體系別": "[2]技職", "isLoseResource": false, "level": "大學"}, {"代碼": "1056", "學校名稱": "東南科技大學", "公/私立": "私立", "縣市名稱": "[01]新北市", "地址": {"simple": "[222]新北市深坑區北深路三段152號", "advance": {"locate": {"lat": "25.00444", "lng": "121.604718", "no": "097", "bheigh2": "1", "bcount2": "1", "baddr2": "新北市", "bname2": "深坑區", "village": "萬福村", "road": "北深路三段152號", "msg": "Success", "precision": "100"}}}, "電話": "(02)86625900", "網址": "http://www.tnu.edu.tw/", "體系別": "[2]技職", "isLoseResource": false, "level": "大學"}, {"代碼": "1057", "學校名稱": "德明財經科技大學", "公/私立": "私立", "縣市名稱": "[40]臺北市", "地址": {"simple": "[114]臺北市內湖區環山路一段56號", "advance": {"locate": {"lat": "25.08651", "lng": "121.565577", "no": "101", "bheigh2": "1", "bcount2": "1", "baddr2": "台北市", "bname2": "內湖區", "village": "西安里", "road": "環山路一段56號", "msg": "Success", "precision": "100"}}}, "電話": "(02)26585801", "網址": "http://www.takming.edu.tw", "體系別": "[2]技職", "isLoseResource": false, "level": "大學"}, {"代碼": "1058", "學校名稱": "明道大學", "公/私立": "私立", "縣市名稱": "[07]彰化縣", "地址": {"simple": "[523]彰化縣埤頭鄉文化路369號", "advance": {"locate": {"lat": "23.8693335", "lng": "120.4947568", "no": "暫無資料", "bheigh2": "1", "bcount2": "1", "baddr2": "彰化縣", "bname2": "埤頭鄉", "village": "元埔村", "road": "文化路369號", "msg": "Success", "precision": "100"}}}, "電話": "(04)8876660", "網址": "http://www.mdu.edu.tw", "體系別": "[1]一般", "isLoseResource": false, "level": "大學"}, {"代碼": "1060", "學校名稱": "南開科技大學", "公/私立": "私立", "縣市名稱": "[08]南投縣", "地址": {"simple": "[542]南投縣草屯鎮中正路568號", "advance": {"locate": {"lat": "23.981023", "lng": "120.696725", "no": "暫無資料", "bheigh2": "1", "bcount2": "1", "baddr2": "南投縣", "bname2": "草屯鎮", "village": "富寮里", "road": "中正路568號", "msg": "Success", "precision": "100"}}}, "電話": "(049)2563489", "網址": "http://www.nkut.edu.tw", "體系別": "[2]技職", "isLoseResource": false, "level": "大學"}, {"代碼": "1061", "學校名稱": "中華科技大學", "公/私立": "私立", "縣市名稱": "[39]臺北市", "地址": {"simple": "[115]臺北市南港區研究院路三段245號", "advance": {"locate": {"lat": "25.033624", "lng": "121.609877", "no": "096", "bheigh2": "1", "bcount2": "1", "baddr2": "台北市", "bname2": "南港區", "village": "九如里", "road": "研究院路三段245號", "msg": "Success", "precision": "100"}}}, "電話": "(02)27821862~4", "網址": "http://www.cust.edu.tw/www/cust.html", "體系別": "[2]技職", "isLoseResource": false, "level": "大學"}, {"代碼": "1062", "學校名稱": "僑光科技大學", "公/私立": "私立", "縣市名稱": "[19]臺中市", "地址": {"simple": "[407]臺中市西屯區僑光路100號", "advance": {"locate": {"lat": "24.189109", "lng": "120.643208", "no": "暫無資料", "bheigh2": "1", "bcount2": "1", "baddr2": "台中市", "bname2": "西屯區", "village": "西墩里", "road": "僑光路100號", "msg": "Success", "precision": "100"}}}, "電話": "(04)27016855", "網址": "http://www.ocu.edu.tw", "體系別": "[2]技職", "isLoseResource": false, "level": "大學"}, {"代碼": "1063", "學校名稱": "育達科技大學", "公/私立": "私立", "縣市名稱": "[05]苗栗縣", "地址": {"simple": "[361]苗栗縣造橋鄉談文村學府路168號", "advance": {"locate": {"lat": "24.649649", "lng": "120.842588", "no": "暫無資料", "bheigh2": "1", "bcount2": "1", "baddr2": "苗栗縣", "bname2": "造橋鄉", "village": "談文村", "road": "學府路168號", "msg": "Success", "precision": "100"}}}, "電話": "(037)651188", "網址": "http://www.ydu.edu.tw", "體系別": "[2]技職", "isLoseResource": false, "level": "大學"}, {"代碼": "1064", "學校名稱": "美和科技大學", "公/私立": "私立", "縣市名稱": "[13]屏東縣", "地址": {"simple": "[912]屏東縣內埔鄉美和村屏光路23號", "advance": {"locate": {"lat": "22.614884", "lng": "120.57123", "no": "暫無資料", "bheigh2": "1", "bcount2": "1", "baddr2": "屏東縣", "bname2": "內埔鄉", "village": "美和村", "road": "屏光路23號", "msg": "Success", "precision": "100"}}}, "電話": "(08)7799821", "網址": "http://www.meiho.edu.tw", "體系別": "[2]技職", "isLoseResource": false, "level": "大學"}, {"代碼": "1065", "學校名稱": "吳鳳科技大學", "公/私立": "私立", "縣市名稱": "[10]嘉義縣", "地址": {"simple": "[621]嘉義縣民雄鄉建國路二段117號", "advance": {"locate": {"lat": "23.535376", "lng": "120.434303", "no": "暫無資料", "bheigh2": "1", "bcount2": "1", "baddr2": "嘉義縣", "bname2": "民雄鄉", "village": "文隆村", "road": "建國路二段117號", "msg": "Success", "precision": "100"}}}, "電話": "(05)2267125", "網址": "http://www.wfu.edu.tw/", "體系別": "[2]技職", "isLoseResource": false, "level": "大學"}, {"代碼": "1066", "學校名稱": "環球科技大學", "公/私立": "私立", "縣市名稱": "[09]雲林縣", "地址": {"simple": "[640]雲林縣斗六市嘉東里鎮南路1221號", "advance": {"locate": {"lat": "23.680444", "lng": "120.555553", "no": "暫無資料", "bheigh2": "1", "bcount2": "1", "baddr2": "雲林縣", "bname2": "斗六市", "village": "嘉東里", "road": "鎮南路1221號", "msg": "Success", "precision": "100"}}}, "電話": "(05)5370988", "網址": "http://www.twu.edu.tw/", "體系別": "[2]技職", "isLoseResource": false, "level": "大學"}, {"代碼": "1067", "學校名稱": "台灣首府大學", "公/私立": "私立", "縣市名稱": "[11]臺南市", "地址": {"simple": "[721]臺南市麻豆區南勢里168號", "advance": {"locate": {"lat": "23.21061576", "lng": "120.23664286", "no": "暫無資料", "bheigh2": "暫無資料", "bcount2": "暫無資料", "baddr2": "台南市", "bname2": "麻豆區", "village": "北勢里", "road": "", "msg": "Success", "precision": "100"}}}, "電話": "(06)5718888", "網址": "http://web.tsu.edu.tw/bin/home.php", "體系別": "[1]一般", "isLoseResource": false, "level": "大學"}, {"代碼": "1068", "學校名稱": "中州科技大學", "公/私立": "私立", "縣市名稱": "[07]彰化縣", "地址": {"simple": "[510]彰化縣員林市山腳路三段2巷6號", "advance": {"locate": {"lat": "23.9577273", "lng": "120.6045179", "no": "暫無資料", "bheigh2": "0", "bcount2": "0", "baddr2": "彰化縣", "bname2": "員林市", "village": "鎮興里", "road": "山腳路三段2巷6號", "msg": "Success", "precision": "100"}}}, "電話": "(04)8359000", "網址": "http://www.ccut.edu.tw", "體系別": "[2]技職", "isLoseResource": false, "level": "大學"}, {"代碼": "1069", "學校名稱": "修平科技大學", "公/私立": "私立", "縣市名稱": "[06]臺中市", "地址": {"simple": "[412]臺中市大里區工業路11號", "advance": {"locate": {"lat": "24.095383", "lng": "120.713385", "no": "暫無資料", "bheigh2": "1", "bcount2": "1", "baddr2": "台中市", "bname2": "大里區", "village": "仁化里", "road": "工業路11號", "msg": "Success", "precision": "100"}}}, "電話": "(04)24961100", "網址": "http://www.hust.edu.tw/", "體系別": "[2]技職", "isLoseResource": false, "level": "大學"}, {"代碼": "1070", "學校名稱": "長庚科技大學", "公/私立": "私立", "縣市名稱": "[03]桃園市", "地址": {"simple": "[333]桃園市龜山區文化一路261號", "advance": {"locate": {"lat": "25.030204", "lng": "121.389647", "no": "暫無資料", "bheigh2": "1", "bcount2": "1", "baddr2": "桃園市", "bname2": "龜山區", "village": "樂善里", "road": "文化一路261號", "msg": "Success", "precision": "100"}}}, "電話": "(03)2118999", "網址": "http://www.cgust.edu.tw", "體系別": "[2]技職", "isLoseResource": false, "level": "大學"}, {"代碼": "1071", "學校名稱": "臺北城市科技大學", "公/私立": "私立", "縣市名稱": "[42]臺北市", "地址": {"simple": "[112]臺北市北投區學園路2號", "advance": {"locate": {"lat": "25.131349", "lng": "121.468", "no": "暫無資料", "bheigh2": "1", "bcount2": "1", "baddr2": "台北市", "bname2": "北投區", "village": "一德里", "road": "學園路2號", "msg": "Success", "precision": "100"}}}, "電話": "(02)28927154", "網址": "http://www.tpcu.edu.tw", "體系別": "[2]技職", "isLoseResource": false, "level": "大學"}, {"代碼": "1072", "學校名稱": "大華科技大學", "公/私立": "私立", "縣市名稱": "[04]新竹縣", "地址": {"simple": "[307]新竹縣芎林鄉大華路1號", "advance": {"locate": {"lat": "24.777048", "lng": "121.08988", "no": "087", "bheigh2": "", "bcount2": "", "baddr2": "新竹縣", "bname2": "芎林鄉", "village": "水坑村", "road": "大華路1號", "msg": "Success", "precision": "100"}}}, "電話": "(03)5927700", "網址": "http://www.tust.edu.tw", "體系別": "[2]技職", "isLoseResource": false, "level": "大學"}, {"代碼": "1073", "學校名稱": "醒吾科技大學", "公/私立": "私立", "縣市名稱": "[01]新北市", "地址": {"simple": "[244]新北市林口區粉寮路一段101號", "advance": {"locate": {"lat": "25.080762", "lng": "121.396642", "no": "099", "bheigh2": "1", "bcount2": "1", "baddr2": "新北市", "bname2": "林口區", "village": "東林村", "road": "粉寮路一段101號", "msg": "Success", "precision": "100"}}}, "電話": "(02)26015310", "網址": "http://www.hwu.edu.tw", "體系別": "[2]技職", "isLoseResource": false, "level": "大學"}, {"代碼": "1075", "學校名稱": "文藻外語大學", "公/私立": "私立", "縣市名稱": "[55]高雄市", "地址": {"simple": "[807]高雄市三民區民族一路900號", "advance": {"locate": {"lat": "22.670344", "lng": "120.318382", "no": "100", "bheigh2": "1", "bcount2": "1", "baddr2": "高雄市", "bname2": "三民區", "village": "鼎力里", "road": "民族一路900號", "msg": "Success", "precision": "100"}}}, "電話": "(07)3426031", "網址": "http://www.wzu.edu.tw", "體系別": "[2]技職", "isLoseResource": false, "level": "大學"}, {"代碼": "1076", "學校名稱": "華夏科技大學", "公/私立": "私立", "縣市名稱": "[01]新北市", "地址": {"simple": "[235]新北市中和區工專路111號", "advance": {"locate": {"lat": "24.981956", "lng": "121.507421", "no": "097", "bheigh2": "1", "bcount2": "1", "baddr2": "新北市", "bname2": "中和區", "village": "華新里", "road": "工專路111號", "msg": "Success", "precision": "100"}}}, "電話": "(02)89415100", "網址": "http://www.hwh.edu.tw", "體系別": "[2]技職", "isLoseResource": false, "level": "大學"}, {"代碼": "1077", "學校名稱": "慈濟科技大學", "公/私立": "私立", "縣市名稱": "[15]花蓮縣", "地址": {"simple": "[970]花蓮縣花蓮市建國路二段880號", "advance": {"locate": {"lat": "23.997372", "lng": "121.56493308", "no": "暫無資料", "bheigh2": "1", "bcount2": "1", "baddr2": "花蓮縣", "bname2": "花蓮市", "village": "國興里", "road": "建國路二段880號", "msg": "Success", "precision": "100"}}}, "電話": "(03)8572158", "網址": "http://www.tcust.edu.tw", "體系別": "[2]技職", "isLoseResource": false, "level": "大學"}, {"代碼": "1078", "學校名稱": "致理科技大學", "公/私立": "私立", "縣市名稱": "[01]新北市", "地址": {"simple": "[220]新北市板橋區文化路一段313號", "advance": {"locate": {"lat": "25.020853", "lng": "121.465214", "no": "098", "bheigh2": "1", "bcount2": "1", "baddr2": "新北市", "bname2": "板橋區", "village": "忠誠里", "road": "文化路一段313號", "msg": "Success", "precision": "100"}}}, "電話": "(02)22576167", "網址": "http://www.chihlee.edu.tw", "體系別": "[2]技職", "isLoseResource": false, "level": "大學"}, {"代碼": "1079", "學校名稱": "康寧大學", "公/私立": "私立", "縣市名稱": "[40]臺北市", "地址": {"simple": "[114]臺北市內湖區康寧路三段75巷137號", "advance": {"locate": {"lat": "25.075208", "lng": "121.61003", "no": "100", "bheigh2": "1", "bcount2": "1", "baddr2": "台北市", "bname2": "內湖區", "village": "金湖里", "road": "康寧路三段75巷137號", "msg": "Success", "precision": "100"}}}, "電話": "(02)26321181", "網址": "http://www.ukn.edu.tw/", "體系別": "[1]一般", "isLoseResource": false, "level": "大學"}, {"代碼": "1080", "學校名稱": "宏國德霖科技大學", "公/私立": "私立", "縣市名稱": "[01]新北市", "地址": {"simple": "[236]新北市土城區青雲路380巷1號", "advance": {"locate": {"lat": "24.973535", "lng": "121.456434", "no": "091", "bheigh2": "1", "bcount2": "1", "baddr2": "新北市", "bname2": "土城區", "village": "清化里", "road": "青雲路380巷1號", "msg": "Success", "precision": "100"}}}, "電話": "(02)22733567", "網址": "http://www.hdut.edu.tw/", "體系別": "[2]技職", "isLoseResource": false, "level": "大學"}, {"代碼": "1081", "學校名稱": "東方設計大學", "公/私立": "私立", "縣市名稱": "[12]高雄市", "地址": {"simple": "[829]高雄市湖內區東方路110號", "advance": {"locate": {"lat": "22.879676", "lng": "120.247028", "no": "101", "bheigh2": "1", "bcount2": "1", "baddr2": "高雄市", "bname2": "湖內區", "village": "湖東里", "road": "東方路110號", "msg": "Success", "precision": "100"}}}, "電話": "(07)6932011", "網址": "http://www.tf.edu.tw", "體系別": "[2]技職", "isLoseResource": false, "level": "大學"}, {"代碼": "1082", "學校名稱": "崇右影藝科技大學", "公/私立": "私立", "縣市名稱": "[17]基隆市", "地址": {"simple": "[201]基隆市信義區義七路40號", "advance": {"locate": {"lat": "25.131747", "lng": "121.753665", "no": "暫無資料", "bheigh2": "1", "bcount2": "1", "baddr2": "基隆市", "bname2": "信義區", "village": "義幸里", "road": "義七路40號", "msg": "Success", "precision": "100"}}}, "電話": "(02)24237785", "網址": "http://www.cufa.edu.tw/", "體系別": "[2]技職", "isLoseResource": false, "level": "大學"}, {"代碼": "1083", "學校名稱": "台北海洋科技大學", "公/私立": "私立", "縣市名稱": "[01]新北市", "地址": {"simple": "[251]新北市淡水區濱海路三段150號", "advance": {"locate": {"lat": "25.19217408", "lng": "121.42585585", "no": "098", "bheigh2": "1", "bcount2": "1", "baddr2": "新北市", "bname2": "淡水區", "village": "沙崙里", "road": "濱海路三段150號", "msg": "Success", "precision": "100"}}}, "電話": "(02)28059999", "網址": "http://www.tumt.edu.tw/bin/home.php", "體系別": "[2]技職", "isLoseResource": false, "level": "大學"}, {"代碼": "3002", "學校名稱": "臺北市立大學", "公/私立": "公立", "縣市名稱": "[35]臺北市", "地址": {"simple": "[100]臺北市中正區愛國西路1號", "advance": {"locate": {"lat": "25.035578", "lng": "121.513569", "no": "100", "bheigh2": "1", "bcount2": "1", "baddr2": "台北市", "bname2": "中正區", "village": "建國里", "road": "愛國西路1號", "msg": "Success", "precision": "100"}}}, "電話": "(02)23113040", "網址": "http://www.uTaipei.edu.tw", "體系別": "[1]一般", "isLoseResource": false, "level": "大學"}, {"代碼": "0144", "學校名稱": "國立臺灣戲曲學院", "公/私立": "公立", "縣市名稱": "[40]臺北市", "地址": {"simple": "[114]臺北市內湖區內湖路二段177號", "advance": {"locate": {"lat": "25.081483", "lng": "121.586582", "no": "099", "bheigh2": "1", "bcount2": "1", "baddr2": "台北市", "bname2": "內湖區", "village": "湖濱里", "road": "內湖路二段177號", "msg": "Success", "precision": "100"}}}, "電話": "(02)27962666", "網址": "http://www.tcpa.edu.tw/bin/home.php", "體系別": "[2]技職", "isLoseResource": false, "level": "大學"}, {"代碼": "1125", "學校名稱": "中信金融管理學院", "公/私立": "私立", "縣市名稱": "[21]臺南市", "地址": {"simple": "[709]臺南市安南區台江大道三段600號", "advance": {"locate": {"lat": "23.055659", "lng": "120.160252", "no": "暫無資料", "bheigh2": "1", "bcount2": "1", "baddr2": "台南市", "bname2": "安南區", "village": "淵西里", "road": "台江大道三段600號", "msg": "Success", "precision": "100"}}}, "電話": "(06)2873335", "網址": "http://www.ctbc.edu.tw/", "體系別": "[1]一般", "isLoseResource": false, "level": "大學"}, {"代碼": "1148", "學校名稱": "大漢技術學院", "公/私立": "私立", "縣市名稱": "[15]花蓮縣", "地址": {"simple": "[971]花蓮縣新城鄉大漢村樹人街1號", "advance": {"locate": {"lat": "24.04005484", "lng": "121.59853842", "no": "暫無資料", "bheigh2": "1", "bcount2": "1", "baddr2": "花蓮縣", "bname2": "新城鄉", "village": "北埔村", "road": "樹人街1號", "msg": "Success", "precision": "100"}}}, "電話": "(03)8210888", "網址": "http://www.dahan.edu.tw", "體系別": "[2]技職", "isLoseResource": false, "level": "大學"}, {"代碼": "1159", "學校名稱": "和春技術學院", "公/私立": "私立", "縣市名稱": "[12]高雄市", "地址": {"simple": "[831]高雄市大寮區琉球里至學路288號", "advance": {"locate": {"lat": "22.607453", "lng": "120.426963", "no": "100", "bheigh2": "1", "bcount2": "1", "baddr2": "高雄市", "bname2": "大寮區", "village": "琉球里", "road": "至學路288號", "msg": "Success", "precision": "100"}}}, "電話": "(07)2621941", "網址": "http://www.fotech.edu.tw", "體系別": "[2]技職", "isLoseResource": false, "level": "大學"}, {"代碼": "1166", "學校名稱": "亞東技術學院", "公/私立": "私立", "縣市名稱": "[01]新北市", "地址": {"simple": "[220]新北市板橋區四川路二段58號", "advance": {"locate": {"lat": "24.995201", "lng": "121.453085", "no": "082", "bheigh2": "1", "bcount2": "1", "baddr2": "新北市", "bname2": "板橋區", "village": "華東里", "road": "四川路二段58號", "msg": "Success", "precision": "100"}}}, "電話": "(02)77388000", "網址": "http://www.oit.edu.tw", "體系別": "[2]技職", "isLoseResource": false, "level": "大學"}, {"代碼": "1168", "學校名稱": "南亞技術學院", "公/私立": "私立", "縣市名稱": "[03]桃園市", "地址": {"simple": "[320]桃園市中壢區中山東路三段414號", "advance": {"locate": {"lat": "24.937312", "lng": "121.251841", "no": "暫無資料", "bheigh2": "1", "bcount2": "1", "baddr2": "桃園市", "bname2": "中壢區", "village": "龍昌里", "road": "中山東路三段414號", "msg": "Success", "precision": "100"}}}, "電話": "(03)4361070", "網址": "http://www.nanya.edu.tw/home.aspx", "體系別": "[2]技職", "isLoseResource": false, "level": "大學"}, {"代碼": "1176", "學校名稱": "稻江科技暨管理學院", "公/私立": "私立", "縣市名稱": "[10]嘉義縣", "地址": {"simple": "[613]嘉義縣朴子市學府路二段51號", "advance": {"locate": {"lat": "23.447882", "lng": "120.288824", "no": "暫無資料", "bheigh2": "1", "bcount2": "1", "baddr2": "嘉義縣", "bname2": "朴子市", "village": "大葛里", "road": "學府路二段51號", "msg": "Success", "precision": "100"}}}, "電話": "(05)3622889", "網址": "http://www.toko.edu.tw", "體系別": "[1]一般", "isLoseResource": false, "level": "大學"}, {"代碼": "1182", "學校名稱": "蘭陽技術學院", "公/私立": "私立", "縣市名稱": "[02]宜蘭縣", "地址": {"simple": "[261]宜蘭縣頭城鎮復興路79號", "advance": {"locate": {"lat": "24.864078", "lng": "121.817623", "no": "暫無資料", "bheigh2": "", "bcount2": "", "baddr2": "宜蘭縣", "bname2": "頭城鎮", "village": "拔雅里", "road": "復興路79號", "msg": "Success", "precision": "100"}}}, "電話": "(03)9771997", "網址": "http://www.fit.edu.tw", "體系別": "[2]技職", "isLoseResource": false, "level": "大學"}, {"代碼": "1183", "學校名稱": "黎明技術學院", "公/私立": "私立", "縣市名稱": "[01]新北市", "地址": {"simple": "[243]新北市泰山區泰林路三段22號", "advance": {"locate": {"lat": "25.06589544", "lng": "121.41961552", "no": "暫無資料", "bheigh2": "0", "bcount2": "0", "baddr2": "新北市", "bname2": "泰山區", "village": "黎明里", "road": "泰林路三段22號", "msg": "Success", "precision": "100"}}}, "電話": "(02)29097811", "網址": "http://www.lit.edu.tw", "體系別": "[2]技職", "isLoseResource": false, "level": "大學"}, {"代碼": "1185", "學校名稱": "經國管理暨健康學院", "公/私立": "私立", "縣市名稱": "[17]基隆市", "地址": {"simple": "[203]基隆市中山區復興路336號", "advance": {"locate": {"lat": "25.15096", "lng": "121.728797", "no": "暫無資料", "bheigh2": "1", "bcount2": "1", "baddr2": "基隆市", "bname2": "中山區", "village": "德和里", "road": "復興路336號", "msg": "Success", "precision": "100"}}}, "電話": "(02)24372093", "網址": "http://www.cku.edu.tw", "體系別": "[2]技職", "isLoseResource": false, "level": "大學"}, {"代碼": "1188", "學校名稱": "大同技術學院", "公/私立": "私立", "縣市名稱": "[20]嘉義市", "地址": {"simple": "[600]嘉義市東區彌陀路253號", "advance": {"locate": {"lat": "23.469541", "lng": "120.464969", "no": "暫無資料", "bheigh2": "1", "bcount2": "1", "baddr2": "嘉義市", "bname2": "東區", "village": "芳草里", "road": "彌陀路253號", "msg": "Success", "precision": "100"}}}, "電話": "(05)2223124", "網址": "http://www.ttc.edu.tw", "體系別": "[2]技職", "isLoseResource": false, "level": "大學"}, {"代碼": "1192", "學校名稱": "臺灣觀光學院", "公/私立": "私立", "縣市名稱": "[15]花蓮縣", "地址": {"simple": "[974]花蓮縣壽豐鄉豐山村中興街268號", "advance": {"locate": {"lat": "23.859727", "lng": "121.488193", "no": "暫無資料", "bheigh2": "0", "bcount2": "0", "baddr2": "花蓮縣", "bname2": "壽豐鄉", "village": "豐山村", "road": "中興街268號", "msg": "Success", "precision": "100"}}}, "電話": "(03)8653906", "網址": "http://www.tht.edu.tw", "體系別": "[2]技職", "isLoseResource": false, "level": "大學"}, {"代碼": "1195", "學校名稱": "馬偕醫學院", "公/私立": "私立", "縣市名稱": "[01]新北市", "地址": {"simple": "[252]新北市三芝區中正路三段46號", "advance": {"locate": {"lat": "25.25291714", "lng": "121.49669544", "no": "101", "bheigh2": "1", "bcount2": "1", "baddr2": "新北市", "bname2": "三芝區", "village": "古庄村", "road": "中正路三段46號", "msg": "Success", "precision": "100"}}}, "電話": "(02)26360303", "網址": "http://www.mmc.edu.tw", "體系別": "[1]一般", "isLoseResource": false, "level": "大學"}, {"代碼": "1196", "學校名稱": "法鼓文理學院", "公/私立": "私立", "縣市名稱": "[01]新北市", "地址": {"simple": "[208]新北市金山區西湖里法鼓路700號", "advance": {"locate": {"lat": "25.236214", "lng": "121.62944", "no": "暫無資料", "bheigh2": "暫無資料", "bcount2": "暫無資料", "baddr2": "新北市", "bname2": "金山區", "village": "", "road": "法鼓路", "msg": "Success", "precision": "100"}}}, "電話": "(02) 24980707", "網址": "http://www.dila.edu.tw/", "體系別": "[1]一般", "isLoseResource": false, "level": "大學"}, {"代碼": "0221", "學校名稱": "國立臺南護理專科學校", "公/私立": "公立", "縣市名稱": "[21]臺南市", "地址": {"simple": "[700]臺南市中西區民族路二段78號", "advance": {"locate": {"lat": "22.995406", "lng": "120.207083", "no": "099", "bheigh2": "1", "bcount2": "1", "baddr2": "台南市", "bname2": "中西區", "village": "赤嵌里", "road": "民族路二段78號", "msg": "Success", "precision": "100"}}}, "電話": "(06)2110600", "網址": "http://www.ntin.edu.tw", "體系別": "[2]技職", "isLoseResource": false, "level": "大學"}, {"代碼": "0222", "學校名稱": "國立臺東專科學校", "公/私立": "公立", "縣市名稱": "[14]臺東縣", "地址": {"simple": "[950]臺東縣臺東市正氣北路889號", "advance": {"locate": {"lat": "22.7565608", "lng": "121.1236714", "no": "暫無資料", "bheigh2": "1", "bcount2": "1", "baddr2": "台東縣", "bname2": "台東市", "village": "豐樂里", "road": "正氣北路889號", "msg": "Success", "precision": "100"}}}, "電話": "(089)226389#6000　", "網址": "http://www.ntc.edu.tw", "體系別": "[2]技職", "isLoseResource": false, "level": "大學"}, {"代碼": "1282", "學校名稱": "馬偕醫護管理專科學校", "公/私立": "私立", "縣市名稱": "[42]臺北市", "地址": {"simple": "[112]臺北市北投區聖景路92號", "advance": {"locate": {"lat": "25.121955", "lng": "121.464528", "no": "094", "bheigh2": "1", "bcount2": "1", "baddr2": "台北市", "bname2": "北投區", "village": "關渡里", "road": "聖景路92號", "msg": "Success", "precision": "100"}}}, "電話": "(02)28584180", "網址": "http://www.mkc.edu.tw", "體系別": "[2]技職", "isLoseResource": false, "level": "大學"}, {"代碼": "1283", "學校名稱": "仁德醫護管理專科學校", "公/私立": "私立", "縣市名稱": "[05]苗栗縣", "地址": {"simple": "[356]苗栗縣後龍鎮溪洲里7鄰砂崙湖79之9號", "advance": {"locate": {"lat": "24.623573", "lng": "120.782943", "no": "暫無資料", "bheigh2": "1", "bcount2": "1", "baddr2": "苗栗縣", "bname2": "後龍鎮", "village": "溪洲里", "road": "砂崙湖79-9號", "msg": "Success", "precision": "100"}}}, "電話": "(037)728855", "網址": "http://www.jente.edu.tw", "體系別": "[2]技職", "isLoseResource": false, "level": "大學"}, {"代碼": "1284", "學校名稱": "樹人醫護管理專科學校", "公/私立": "私立", "縣市名稱": "[12]高雄市", "地址": {"simple": "[821]高雄市路竹區環球路452號", "advance": {"locate": {"lat": "22.882651", "lng": "120.261091", "no": "100", "bheigh2": "1", "bcount2": "1", "baddr2": "高雄市", "bname2": "路竹區", "village": "甲南里", "road": "環球路452號", "msg": "Success", "precision": "100"}}}, "電話": "(07)6979333", "網址": "http://www.szmc.edu.tw", "體系別": "[2]技職", "isLoseResource": false, "level": "大學"}, {"代碼": "1285", "學校名稱": "慈惠醫護管理專科學校", "公/私立": "私立", "縣市名稱": "[13]屏東縣", "地址": {"simple": "[926]屏東縣南州鄉三民路367號", "advance": {"locate": {"lat": "22.485971", "lng": "120.489197", "no": "暫無資料", "bheigh2": "1", "bcount2": "1", "baddr2": "屏東縣", "bname2": "南州鄉", "village": "七塊村", "road": "三民路367號", "msg": "Success", "precision": "100"}}}, "電話": "(08)8647367", "網址": "http://www.tzuhui.edu.tw", "體系別": "[2]技職", "isLoseResource": false, "level": "大學"}, {"代碼": "1286", "學校名稱": "耕莘健康管理專科學校", "公/私立": "私立", "縣市名稱": "[01]新北市", "地址": {"simple": "[231]新北市新店區民族路112號", "advance": {"locate": {"lat": "24.976155", "lng": "121.535463", "no": "暫無資料", "bheigh2": "1", "bcount2": "1", "baddr2": "新北市", "bname2": "新店區", "village": "百和里", "road": "民族路112號", "msg": "Success", "precision": "100"}}}, "電話": "(02)22191131", "網址": "http://www.ctcn.edu.tw", "體系別": "[2]技職", "isLoseResource": false, "level": "大學"}, {"代碼": "1287", "學校名稱": "敏惠醫護管理專科學校", "公/私立": "私立", "縣市名稱": "[11]臺南市", "地址": {"simple": "[736]臺南市柳營區中山東路二段1116號", "advance": {"locate": {"lat": "23.279847", "lng": "120.329726", "no": "暫無資料", "bheigh2": "1", "bcount2": "1", "baddr2": "台南市", "bname2": "柳營區", "village": "東昇村", "road": "中山東路二段1116號", "msg": "Success", "precision": "100"}}}, "電話": "(06)6226111", "網址": "http://www.mhchcm.edu.tw/", "體系別": "[2]技職", "isLoseResource": false, "level": "大學"}, {"代碼": "1289", "學校名稱": "育英醫護管理專科學校", "公/私立": "私立", "縣市名稱": "[55]高雄市", "地址": {"simple": "[807]高雄市三民區大昌二路420巷15號", "advance": {"locate": {"lat": "22.649905", "lng": "120.332618", "no": "097", "bheigh2": "", "bcount2": "", "baddr2": "高雄市", "bname2": "三民區", "village": "本武里", "road": "大昌二路420巷15號", "msg": "Success", "precision": "100"}}}, "電話": "(07)3811765", "網址": "http://www.yuhing.edu.tw/releaseRedirect.do?unitID=1&pageID=95", "體系別": "[2]技職", "isLoseResource": false, "level": "大學"}, {"代碼": "1291", "學校名稱": "聖母醫護管理專科學校", "公/私立": "私立", "縣市名稱": "[02]宜蘭縣", "地址": {"simple": "[266]宜蘭縣三星鄉三星路二段265巷100號", "advance": {"locate": {"lat": "24.664981", "lng": "121.703003", "no": "暫無資料", "bheigh2": "1", "bcount2": "1", "baddr2": "宜蘭縣", "bname2": "三星鄉", "village": "大隱村", "road": "三星路二段265巷100號", "msg": "Success", "precision": "100"}}}, "電話": "(03)9897396", "網址": "http://www.smc.edu.tw/", "體系別": "[2]技職", "isLoseResource": false, "level": "大學"}, {"代碼": "1292", "學校名稱": "新生醫護管理專科學校", "公/私立": "私立", "縣市名稱": "[03]桃園市", "地址": {"simple": "[325]桃園市龍潭區中豐路高平段418號", "advance": {"locate": {"lat": "24.832312", "lng": "121.208657", "no": "暫無資料", "bheigh2": "1", "bcount2": "1", "baddr2": "桃園市", "bname2": "龍潭區", "village": "高平里", "road": "中豐路高平段418號", "msg": "Success", "precision": "100"}}}, "電話": "(03)4117578", "網址": "http://www.web.hsc.edu.tw/bin/home.php", "體系別": "[2]技職", "isLoseResource": false, "level": "大學"}, {"代碼": "1293", "學校名稱": "崇仁醫護管理專科學校", "公/私立": "私立", "縣市名稱": "[10]嘉義縣", "地址": {"simple": "[622]嘉義縣大林鎮湖北里大湖1之10號", "advance": {"locate": {"lat": "23.61998", "lng": "120.458759", "no": "暫無資料", "bheigh2": "1", "bcount2": "1", "baddr2": "嘉義縣", "bname2": "大林鎮", "village": "湖北里", "road": "大湖1-10號", "msg": "Success", "precision": "100"}}}, "電話": "(05)2658880", "網址": "http://www.cjc.edu.tw", "體系別": "[2]技職", "isLoseResource": false, "level": "大學"}, {"代碼": "010301", "學校名稱": "國立華僑高級中等學校", "公私立": "公立", "縣市名稱": "[01]新北市", "地址": {"simple": "[220]新北市板橋區大觀路一段32號", "advance": {"locate": {"lat": "25.007543", "lng": "121.447577", "no": "099", "bheigh2": "1", "bcount2": "1", "baddr2": "新北市", "bname2": "板橋區", "village": "浮洲里", "road": "大觀路一段32號", "msg": "Success", "precision": "100"}}}, "電話": "(02)29684131", "網址": "http://www.nocsh.ntpc.edu.tw", "備註": "", "isLoseResource": false, "level": "高中職"}, {"代碼": "011301", "學校名稱": "私立淡江高中", "公私立": "私立", "縣市名稱": "[01]新北市", "地址": {"simple": "[251]新北市淡水區真理街26號", "advance": {"locate": {"lat": "25.17505998", "lng": "121.43583052", "no": "100", "bheigh2": "1", "bcount2": "1", "baddr2": "新北市", "bname2": "淡水區", "village": "文化里", "road": "真理街26號", "msg": "Success", "precision": "100"}}}, "電話": "(02)26203850", "網址": "http://www.tksh.ntpc.edu.tw", "備註": "", "isLoseResource": false, "level": "高中職"}, {"代碼": "011302", "學校名稱": "私立康橋高中", "公私立": "私立", "縣市名稱": "[01]新北市", "地址": {"simple": "[231]新北市新店區華城路800號", "advance": {"locate": {"lat": "24.910958", "lng": "121.4978", "no": "暫無資料", "bheigh2": "1", "bcount2": "1", "baddr2": "新北市", "bname2": "新店區", "village": "華城里", "road": "華城路800號", "msg": "Success", "precision": "100"}}}, "電話": "(02)22166000", "網址": "http://www.kcbs.ntpc.edu.tw", "備註": "", "isLoseResource": false, "level": "高中職"}, {"代碼": "011306", "學校名稱": "私立金陵女中", "公私立": "私立", "縣市名稱": "[01]新北市", "地址": {"simple": "[241]新北市三重區重新路五段656號", "advance": {"locate": {"lat": "25.04250759", "lng": "121.46640026", "no": "098", "bheigh2": "1", "bcount2": "1", "baddr2": "新北市", "bname2": "三重區", "village": "中興里", "road": "重新路五段656號", "msg": "Success", "precision": "100"}}}, "電話": "(02)29956776", "網址": "http://www.glghs.ntpc.edu.tw", "備註": "", "isLoseResource": false, "level": "高中職"}, {"代碼": "011307", "學校名稱": "新北市裕德高級中等學校", "公私立": "私立", "縣市名稱": "[01]新北市", "地址": {"simple": "[236]新北市土城區擺接堡路1號", "advance": {"locate": {"lat": "24.983013", "lng": "121.439594", "no": "099", "bheigh2": "0", "bcount2": "1", "baddr2": "新北市", "bname2": "土城區", "village": "日和里", "road": "擺接堡路1號", "msg": "Success", "precision": "100"}}}, "電話": "(02)82617889", "網址": "http://www.yuteh.ntpc.edu.tw/yuteh/", "備註": "", "isLoseResource": false, "level": "高中職"}, {"代碼": "011309", "學校名稱": "財團法人南山高中", "公私立": "私立", "縣市名稱": "[01]新北市", "地址": {"simple": "[235]新北市中和區廣福路41號", "advance": {"locate": {"lat": "25.001661", "lng": "121.503438", "no": "099", "bheigh2": "1", "bcount2": "1", "baddr2": "新北市", "bname2": "中和區", "village": "枋寮里", "road": "廣福路41號", "msg": "Success", "precision": "100"}}}, "電話": "(02)22453000", "網址": "http://www.nssh.ntpc.edu.tw", "備註": "", "isLoseResource": false, "level": "高中職"}, {"代碼": "011310", "學校名稱": "財團法人恆毅高中", "公私立": "私立", "縣市名稱": "[01]新北市", "地址": {"simple": "[242]新北市新莊區中正路108號", "advance": {"locate": {"lat": "25.036582", "lng": "121.453756", "no": "100", "bheigh2": "1", "bcount2": "1", "baddr2": "新北市", "bname2": "新莊區", "village": "立人里", "road": "中正路108號", "msg": "Success", "precision": "100"}}}, "電話": "(02)29923619", "網址": "http://www.hchs.ntpc.edu.tw", "備註": "", "isLoseResource": false, "level": "高中職"}, {"代碼": "011311", "學校名稱": "私立聖心女中", "公私立": "私立", "縣市名稱": "[01]新北市", "地址": {"simple": "[249]新北市八里區龍米路一段263號", "advance": {"locate": {"lat": "25.134827", "lng": "121.449496", "no": "097", "bheigh2": "1", "bcount2": "1", "baddr2": "新北市", "bname2": "八里區", "village": "龍源村", "road": "龍米路一段263號", "msg": "Success", "precision": "100"}}}, "電話": "(02)26182287", "網址": "http://www.shgsh.ntpc.edu.tw", "備註": "", "isLoseResource": false, "level": "高中職"}, {"代碼": "011312", "學校名稱": "私立崇義高中", "公私立": "私立", "縣市名稱": "[01]新北市", "地址": {"simple": "[221]新北市汐止區大同路三段68號", "advance": {"locate": {"lat": "25.076967", "lng": "121.669153", "no": "暫無資料", "bheigh2": "1", "bcount2": "1", "baddr2": "新北市", "bname2": "汐止區", "village": "長安里", "road": "大同路三段68號", "msg": "Success", "precision": "100"}}}, "電話": "(02)86482078", "網址": "http://www.tyhs.ntpc.edu.tw/", "備註": "", "isLoseResource": false, "level": "高中職"}, {"代碼": "011314", "學校名稱": "財團法人中華高中", "公私立": "私立", "縣市名稱": "[01]新北市", "地址": {"simple": "[236]新北市土城區城林路2號", "advance": {"locate": {"lat": "24.975635", "lng": "121.437426", "no": "089", "bheigh2": "1", "bcount2": "1", "baddr2": "新北市", "bname2": "土城區", "village": "員仁里", "road": "城林路2號", "msg": "Success", "precision": "100"}}}, "電話": "(02)22693641", "網址": "http://www.chsh.ntpc.edu.tw", "備註": "", "isLoseResource": false, "level": "高中職"}, {"代碼": "011315", "學校名稱": "私立東海高中", "公私立": "私立", "縣市名稱": "[01]新北市", "地址": {"simple": "[241]新北市三重區忠孝路三段93巷12號", "advance": {"locate": {"lat": "25.06478163", "lng": "121.478958", "no": "暫無資料", "bheigh2": "1", "bcount2": "1", "baddr2": "新北市", "bname2": "三重區", "village": "二重里", "road": "忠孝路三段93巷12號", "msg": "Success", "precision": "100"}}}, "電話": "(02)29822788", "網址": "http://www.thhs.ntpc.edu.tw", "備註": "", "isLoseResource": false, "level": "高中職"}, {"代碼": "011316", "學校名稱": "私立格致高中", "公私立": "私立", "縣市名稱": "[01]新北市", "地址": {"simple": "[241]新北市三重區大智街260號", "advance": {"locate": {"lat": "25.073855", "lng": "121.488718", "no": "081", "bheigh2": "1", "bcount2": "1", "baddr2": "新北市", "bname2": "三重區", "village": "永德里", "road": "大智街260號", "msg": "Success", "precision": "100"}}}, "電話": "(02)29855892", "網址": "http://www.gjsh.ntpc.edu.tw", "備註": "", "isLoseResource": false, "level": "高中職"}, {"代碼": "011317", "學校名稱": "私立醒吾高中", "公私立": "私立", "縣市名稱": "[01]新北市", "地址": {"simple": "[244]新北市林口區粉寮路一段75巷80號", "advance": {"locate": {"lat": "25.07957006", "lng": "121.39577894", "no": "暫無資料", "bheigh2": "1", "bcount2": "1", "baddr2": "新北市", "bname2": "林口區", "village": "東林村", "road": "粉寮路一段75巷80號", "msg": "Success", "precision": "100"}}}, "電話": "(02)26012644", "網址": "http://www.swsh.ntpc.edu.tw", "備註": "", "isLoseResource": false, "level": "高中職"}, {"代碼": "011318", "學校名稱": "私立徐匯高中", "公私立": "私立", "縣市名稱": "[01]新北市", "地址": {"simple": "[247]新北市蘆洲區中山一路1號", "advance": {"locate": {"lat": "25.080286", "lng": "121.479941", "no": "098", "bheigh2": "1", "bcount2": "1", "baddr2": "新北市", "bname2": "蘆洲區", "village": "溪墘里", "road": "中山一路1號", "msg": "Success", "precision": "100"}}}, "電話": "(02)22817565", "網址": "http://www.sish.ntpc.edu.tw", "備註": "", "isLoseResource": false, "level": "高中職"}, {"代碼": "011322", "學校名稱": "財團法人崇光女中", "公私立": "私立", "縣市名稱": "[01]新北市", "地址": {"simple": "[231]新北市新店區三民路18號", "advance": {"locate": {"lat": "24.971791", "lng": "121.539032", "no": "101", "bheigh2": "1", "bcount2": "1", "baddr2": "新北市", "bname2": "新店區", "village": "中正里", "road": "三民路18號", "msg": "Success", "precision": "100"}}}, "電話": "(02)29112543", "網址": "http://www.ckgsh.ntpc.edu.tw", "備註": "", "isLoseResource": false, "level": "高中職"}, {"代碼": "011323", "學校名稱": "私立光仁高中", "公私立": "私立", "縣市名稱": "[01]新北市", "地址": {"simple": "[220]新北市板橋區中山路二段255巷18號", "advance": {"locate": {"lat": "25.018148", "lng": "121.476888", "no": "091", "bheigh2": "1", "bcount2": "1", "baddr2": "新北市", "bname2": "板橋區", "village": "光仁里", "road": "中山路二段255巷18號", "msg": "Success", "precision": "100"}}}, "電話": "(02)29615161", "網址": "http://www.kjsh.ntpc.edu.tw", "備註": "", "isLoseResource": false, "level": "高中職"}, {"代碼": "011324", "學校名稱": "私立竹林高中", "公私立": "私立", "縣市名稱": "[01]新北市", "地址": {"simple": "[235]新北市中和區華新街143巷12號", "advance": {"locate": {"lat": "24.97993", "lng": "121.505973", "no": "087", "bheigh2": "", "bcount2": "", "baddr2": "新北市", "bname2": "中和區", "village": "華新里", "road": "華新街143巷12號", "msg": "Success", "precision": "100"}}}, "電話": "(02)29422128", "網址": "http://www.clsh.ntpc.edu.tw", "備註": "", "isLoseResource": false, "level": "高中職"}, {"代碼": "011325", "學校名稱": "私立及人高中", "公私立": "私立", "縣市名稱": "[01]新北市", "地址": {"simple": "[231]新北市新店區安興路1號", "advance": {"locate": {"lat": "24.96629", "lng": "121.514865", "no": "088", "bheigh2": "1", "bcount2": "1", "baddr2": "新北市", "bname2": "新店區", "village": "柴埕里", "road": "安興路1號", "msg": "Success", "precision": "100"}}}, "電話": "(02)22112581", "網址": "http://www.cjsh.ntpc.edu.tw", "備註": "", "isLoseResource": false, "level": "高中職"}, {"代碼": "011329", "學校名稱": "財團法人辭修高中", "公私立": "私立", "縣市名稱": "[01]新北市", "地址": {"simple": "[237]新北市三峽區溪東路251號", "advance": {"locate": {"lat": "24.932042", "lng": "121.409424", "no": "097", "bheigh2": "1", "bcount2": "1", "baddr2": "新北市", "bname2": "三峽區", "village": "溪東里", "road": "溪東路251號", "msg": "Success", "precision": "100"}}}, "電話": "(02)86761277", "網址": "http://www.tsshs.ntpc.edu.tw", "備註": "", "isLoseResource": false, "level": "高中職"}, {"代碼": "011330", "學校名稱": "新北市林口康橋國際高中", "公私立": "私立", "縣市名稱": "[01]新北市", "地址": {"simple": "[244]新北市林口區興林路55號", "advance": {"locate": {"lat": "25.074663", "lng": "121.389723", "no": "暫無資料", "bheigh2": "1", "bcount2": "1", "baddr2": "新北市", "bname2": "林口區", "village": "西林里", "road": "興林路55號", "msg": "Success", "precision": "100"}}}, "電話": "(02)26015888", "網址": "http://www.kcislk.ntpc.edu.tw/zh/index.html", "備註": "", "isLoseResource": false, "level": "高中職"}, {"代碼": "011399", "學校名稱": "私立時雨高中", "公私立": "私立", "縣市名稱": "[01]新北市", "地址": {"simple": "[224]新北市瑞芳區銅山里祈堂路217號", "advance": {"locate": {"lat": "25.109455", "lng": "121.854914", "no": "098", "bheigh2": "1", "bcount2": "1", "baddr2": "新北市", "bname2": "瑞芳區", "village": "石山里", "road": "祈堂路217號", "msg": "Success", "precision": "100"}}}, "電話": "(02)24962217", "網址": "http://www.syjh.ntpc.edu.tw", "備註": "", "isLoseResource": false, "level": "高中職"}, {"代碼": "011405", "學校名稱": "私立樹人家商", "公私立": "私立", "縣市名稱": "[01]新北市", "地址": {"simple": "[238]新北市樹林區大安路216號", "advance": {"locate": {"lat": "24.994378", "lng": "121.419235", "no": "暫無資料", "bheigh2": "1", "bcount2": "1", "baddr2": "新北市", "bname2": "樹林區", "village": "潭底里", "road": "大安路216號", "msg": "Success", "precision": "100"}}}, "電話": "(02)26870391", "網址": "http://www.stgvs.ntpc.edu.tw", "備註": "", "isLoseResource": false, "level": "高中職"}, {"代碼": "011407", "學校名稱": "私立復興商工", "公私立": "私立", "縣市名稱": "[01]新北市", "地址": {"simple": "[234]新北市永和區秀朗路一段201號", "advance": {"locate": {"lat": "25.00351", "lng": "121.518577", "no": "099", "bheigh2": "1", "bcount2": "1", "baddr2": "新北市", "bname2": "永和區", "village": "得和里", "road": "秀朗路一段201號", "msg": "Success", "precision": "100"}}}, "電話": "(02)29262121", "網址": "http://www.fhvs.ntpc.edu.tw", "備註": "", "isLoseResource": false, "level": "高中職"}, {"代碼": "011408", "學校名稱": "私立南強工商", "公私立": "私立", "縣市名稱": "[01]新北市", "地址": {"simple": "[231]新北市新店區文化路42號", "advance": {"locate": {"lat": "24.980873", "lng": "121.544807", "no": "098", "bheigh2": "1", "bcount2": "1", "baddr2": "新北市", "bname2": "新店區", "village": "寶興里", "road": "文化路42號", "msg": "Success", "precision": "100"}}}, "電話": "(02)29155144", "網址": "http://www.ncvs.ntpc.edu.tw", "備註": "", "isLoseResource": false, "level": "高中職"}, {"代碼": "011413", "學校名稱": "私立穀保家商", "公私立": "私立", "縣市名稱": "[01]新北市", "地址": {"simple": "[241]新北市三重區中正北路560巷38號", "advance": {"locate": {"lat": "25.069731", "lng": "121.471119", "no": "101", "bheigh2": "1", "bcount2": "1", "baddr2": "新北市", "bname2": "三重區", "village": "大有里", "road": "中正北路560巷38號", "msg": "Success", "precision": "100"}}}, "電話": "(02)29712343", "網址": "http://www.kpvs.ntpc.edu.tw", "備註": "", "isLoseResource": false, "level": "高中職"}, {"代碼": "011419", "學校名稱": "私立開明工商", "公私立": "私立", "縣市名稱": "[01]新北市", "地址": {"simple": "[231]新北市新店區寶中路49號", "advance": {"locate": {"lat": "24.980013", "lng": "121.546193", "no": "086", "bheigh2": "1", "bcount2": "1", "baddr2": "新北市", "bname2": "新店區", "village": "寶興里", "road": "寶中路49號", "msg": "Success", "precision": "100"}}}, "電話": "(02)29136061", "網址": "http://www.kmvs.ntpc.edu.tw", "備註": "", "isLoseResource": false, "level": "高中職"}, {"代碼": "011420", "學校名稱": "私立智光商工", "公私立": "私立", "縣市名稱": "[01]新北市", "地址": {"simple": "[234]新北市永和區中正路100號", "advance": {"locate": {"lat": "24.995689", "lng": "121.51425", "no": "078", "bheigh2": "1", "bcount2": "1", "baddr2": "新北市", "bname2": "永和區", "village": "智光里", "road": "中正路100號", "msg": "Success", "precision": "100"}}}, "電話": "(02)29432491", "網址": "http://www.ckvs.ntpc.edu.tw", "備註": "", "isLoseResource": false, "level": "高中職"}, {"代碼": "011421", "學校名稱": "私立清傳高商", "公私立": "私立", "縣市名稱": "[01]新北市", "地址": {"simple": "[241]新北市三重區五谷王北街141巷1號", "advance": {"locate": {"lat": "25.052045", "lng": "121.476839", "no": "暫無資料", "bheigh2": "1", "bcount2": "1", "baddr2": "新北市", "bname2": "三重區", "village": "谷王里", "road": "五谷王北街141巷1號", "msg": "Success", "precision": "100"}}}, "電話": "(02)29955535", "網址": "http://www.ccvs.ntpc.edu.tw", "備註": "", "isLoseResource": false, "level": "高中職"}, {"代碼": "011426", "學校名稱": "私立能仁家商", "公私立": "私立", "縣市名稱": "[01]新北市", "地址": {"simple": "[231]新北市新店區文中路53巷10號", "advance": {"locate": {"lat": "24.956945", "lng": "121.540418", "no": "078", "bheigh2": "1", "bcount2": "1", "baddr2": "新北市", "bname2": "新店區", "village": "文中里", "road": "文中路53巷10號", "msg": "Success", "precision": "100"}}}, "電話": "(02)29182399", "網址": "http://www.nrvs.ntpc.edu.tw", "備註": "", "isLoseResource": false, "level": "高中職"}, {"代碼": "011427", "學校名稱": "私立豫章工商", "公私立": "私立", "縣市名稱": "[01]新北市", "地址": {"simple": "[220]新北市板橋區四川路一段391號", "advance": {"locate": {"lat": "24.997276", "lng": "121.458244", "no": "暫無資料", "bheigh2": "1", "bcount2": "1", "baddr2": "新北市", "bname2": "板橋區", "village": "仁愛里", "road": "四川路一段391號", "msg": "Success", "precision": "100"}}}, "電話": "(02)29519810", "網址": "http://www.ycvs.ntpc.edu.tw", "備註": "", "isLoseResource": false, "level": "高中職"}, {"代碼": "011431", "學校名稱": "私立莊敬工家", "公私立": "私立", "縣市名稱": "[01]新北市", "地址": {"simple": "[231]新北市新店區民生路45號", "advance": {"locate": {"lat": "24.985786", "lng": "121.532218", "no": "暫無資料", "bheigh2": "1", "bcount2": "1", "baddr2": "新北市", "bname2": "新店區", "village": "復興里", "road": "民生路45號", "msg": "Success", "precision": "100"}}}, "電話": "(02)22188956", "網址": "http://www.jjvs.ntpc.edu.tw", "備註": "", "isLoseResource": false, "level": "高中職"}, {"代碼": "011432", "學校名稱": "私立中華商海", "公私立": "私立", "縣市名稱": "[01]新北市", "地址": {"simple": "[207]新北市萬里區瑪鋉路15號", "advance": {"locate": {"lat": "25.17782711", "lng": "121.68535285", "no": "072", "bheigh2": "1", "bcount2": "1", "baddr2": "新北市", "bname2": "萬里區", "village": "萬里村", "road": "瑪鋉路15號", "msg": "Success", "precision": "100"}}}, "電話": "(02)24922119", "網址": "http://www.chmvs.ntpc.edu.tw", "備註": "", "isLoseResource": false, "level": "高中職"}, {"代碼": "013303", "學校名稱": "市立泰山高中", "公私立": "公立", "縣市名稱": "[01]新北市", "地址": {"simple": "[243]新北市泰山區辭修路7號", "advance": {"locate": {"lat": "25.057734", "lng": "121.429852", "no": "101", "bheigh2": "1", "bcount2": "1", "baddr2": "新北市", "bname2": "泰山區", "village": "同榮村", "road": "辭修路7號", "msg": "Success", "precision": "100"}}}, "電話": "(02)22963625", "網址": "http://www.tssh.ntpc.edu.tw", "備註": "", "isLoseResource": false, "level": "高中職"}, {"代碼": "013304", "學校名稱": "市立板橋高中", "公私立": "公立", "縣市名稱": "[01]新北市", "地址": {"simple": "[220]新北市板橋區文化路一段25號", "advance": {"locate": {"lat": "25.0117", "lng": "121.459088", "no": "099", "bheigh2": "1", "bcount2": "1", "baddr2": "新北市", "bname2": "板橋區", "village": "黃石里", "road": "文化路一段25號", "msg": "Success", "precision": "100"}}}, "電話": "(02)29602500", "網址": "http://www.pcsh.ntpc.edu.tw", "備註": "", "isLoseResource": false, "level": "高中職"}, {"代碼": "013335", "學校名稱": "市立新店高中", "公私立": "公立", "縣市名稱": "[01]新北市", "地址": {"simple": "[231]新北市新店區中央路93號", "advance": {"locate": {"lat": "24.975642", "lng": "121.531798", "no": "097", "bheigh2": "", "bcount2": "", "baddr2": "新北市", "bname2": "新店區", "village": "福民里", "road": "中央路93號", "msg": "Success", "precision": "100"}}}, "電話": "(02)22193700", "網址": "http://www.htsh.ntpc.edu.tw", "備註": "", "isLoseResource": false, "level": "高中職"}, {"代碼": "013336", "學校名稱": "市立中和高中", "公私立": "公立", "縣市名稱": "[01]新北市", "地址": {"simple": "[235]新北市中和區連城路460號", "advance": {"locate": {"lat": "24.994", "lng": "121.47833", "no": "090", "bheigh2": "1", "bcount2": "1", "baddr2": "新北市", "bname2": "中和區", "village": "嘉慶里", "road": "連城路460號", "msg": "Success", "precision": "100"}}}, "電話": "(02)22227146", "網址": "http://www.chshs.ntpc.edu.tw", "備註": "", "isLoseResource": false, "level": "高中職"}, {"代碼": "013337", "學校名稱": "市立新莊高中", "公私立": "公立", "縣市名稱": "[01]新北市", "地址": {"simple": "[242]新北市新莊區中平路135號", "advance": {"locate": {"lat": "25.048185", "lng": "121.444646", "no": "088", "bheigh2": "1", "bcount2": "1", "baddr2": "新北市", "bname2": "新莊區", "village": "立基里", "road": "中平路135號", "msg": "Success", "precision": "100"}}}, "電話": "(02)29912391", "網址": "http://www.hcsh.ntpc.edu.tw", "備註": "", "isLoseResource": false, "level": "高中職"}, {"代碼": "013338", "學校名稱": "市立新北高中", "公私立": "公立", "縣市名稱": "[01]新北市", "地址": {"simple": "[241]新北市三重區三信路1號", "advance": {"locate": {"lat": "25.08717261", "lng": "121.48928656", "no": "090", "bheigh2": "1", "bcount2": "1", "baddr2": "新北市", "bname2": "三重區", "village": "富貴里", "road": "三信路1號", "msg": "Success", "precision": "100"}}}, "電話": "(02)28577326", "網址": "http://www.ntsh.ntpc.edu.tw/", "備註": "", "isLoseResource": false, "level": "高中職"}, {"代碼": "013339", "學校名稱": "市立林口高中", "公私立": "公立", "縣市名稱": "[01]新北市", "地址": {"simple": "[244]新北市林口區仁愛路二段173號", "advance": {"locate": {"lat": "25.073654", "lng": "121.380997", "no": "098", "bheigh2": "1", "bcount2": "1", "baddr2": "新北市", "bname2": "林口區", "village": "東勢村", "road": "仁愛路二段173號", "msg": "Success", "precision": "100"}}}, "電話": "(02)26009482", "網址": "http://www.lksh.ntpc.edu.tw", "備註": "", "isLoseResource": false, "level": "高中職"}, {"代碼": "013402", "學校名稱": "市立瑞芳高工", "公私立": "公立", "縣市名稱": "[01]新北市", "地址": {"simple": "[224]新北市瑞芳區瑞芳街60號", "advance": {"locate": {"lat": "25.110742", "lng": "121.804678", "no": "101", "bheigh2": "1", "bcount2": "1", "baddr2": "新北市", "bname2": "瑞芳區", "village": "龍安里", "road": "瑞芳街60號", "msg": "Success", "precision": "100"}}}, "電話": "(02)24972516", "網址": "http://www.jfvs.ntpc.edu.tw", "備註": "", "isLoseResource": false, "level": "高中職"}, {"代碼": "013430", "學校名稱": "市立三重商工", "公私立": "公立", "縣市名稱": "[01]新北市", "地址": {"simple": "[241]新北市三重區中正北路163號", "advance": {"locate": {"lat": "25.069668", "lng": "121.480045", "no": "101", "bheigh2": "1", "bcount2": "1", "baddr2": "新北市", "bname2": "三重區", "village": "培德里", "road": "中正北路163號", "msg": "Success", "precision": "100"}}}, "電話": "(02)29715606", "網址": "http://www.scvs.ntpc.edu.tw", "備註": "", "isLoseResource": false, "level": "高中職"}, {"代碼": "013433", "學校名稱": "市立新北高工", "公私立": "公立", "縣市名稱": "[01]新北市", "地址": {"simple": "[236]新北市土城區學府路一段241號", "advance": {"locate": {"lat": "24.983326", "lng": "121.450373", "no": "101", "bheigh2": "1", "bcount2": "1", "baddr2": "新北市", "bname2": "土城區", "village": "學府里", "road": "學府路一段241號", "msg": "Success", "precision": "100"}}}, "電話": "(02)22612483", "網址": "http://www.ntvs.ntpc.edu.tw/bin/home.php", "備註": "", "isLoseResource": false, "level": "高中職"}, {"代碼": "013434", "學校名稱": "市立淡水商工", "公私立": "公立", "縣市名稱": "[01]新北市", "地址": {"simple": "[251]新北市淡水區商工路307號", "advance": {"locate": {"lat": "25.18675959", "lng": "121.45402609", "no": "098", "bheigh2": "1", "bcount2": "1", "baddr2": "新北市", "bname2": "淡水區", "village": "埤島里", "road": "商工路307號", "msg": "Success", "precision": "100"}}}, "電話": "(02)26203930", "網址": "http://www.tsvs.ntpc.edu.tw", "備註": "", "isLoseResource": false, "level": "高中職"}, {"代碼": "014302", "學校名稱": "市立海山高中", "公私立": "公立", "縣市名稱": "[01]新北市", "地址": {"simple": "[220]新北市板橋區漢生東路215號", "advance": {"locate": {"lat": "25.010175", "lng": "121.47088", "no": "100", "bheigh2": "1", "bcount2": "1", "baddr2": "新北市", "bname2": "板橋區", "village": "深丘里", "road": "漢生東路215號", "msg": "Success", "precision": "100"}}}, "電話": "(02)29517475", "網址": "http://www.hshs.ntpc.edu.tw", "備註": "", "isLoseResource": false, "level": "高中職"}, {"代碼": "014311", "學校名稱": "市立三重高中", "公私立": "公立", "縣市名稱": "[01]新北市", "地址": {"simple": "[241]新北市三重區集美街212號", "advance": {"locate": {"lat": "25.054718", "lng": "121.491468", "no": "099", "bheigh2": "1", "bcount2": "1", "baddr2": "新北市", "bname2": "三重區", "village": "光明里", "road": "集美街212號", "msg": "Success", "precision": "100"}}}, "電話": "(02)29760501", "網址": "http://www.schs.ntpc.edu.tw/", "備註": "", "isLoseResource": false, "level": "高中職"}, {"代碼": "014315", "學校名稱": "市立永平高中", "公私立": "公立", "縣市名稱": "[01]新北市", "地址": {"simple": "[234]新北市永和區永平路205號", "advance": {"locate": {"lat": "25.010768", "lng": "121.508616", "no": "097", "bheigh2": "1", "bcount2": "1", "baddr2": "新北市", "bname2": "永和區", "village": "保安里", "road": "永平路205號", "msg": "Success", "precision": "100"}}}, "電話": "(02)22319670", "網址": "http://www.yphs.ntpc.edu.tw", "備註": "", "isLoseResource": false, "level": "高中職"}, {"代碼": "014322", "學校名稱": "市立樹林高中", "公私立": "公立", "縣市名稱": "[01]新北市", "地址": {"simple": "[238]新北市樹林區中華路8號", "advance": {"locate": {"lat": "24.98296", "lng": "121.422459", "no": "099", "bheigh2": "1", "bcount2": "1", "baddr2": "新北市", "bname2": "樹林區", "village": "和平里", "road": "中華路8號", "msg": "Success", "precision": "100"}}}, "電話": "(02)86852011", "網址": "http://www.slsh.ntpc.edu.tw", "備註": "", "isLoseResource": false, "level": "高中職"}, {"代碼": "014326", "學校名稱": "市立明德高中", "公私立": "公立", "縣市名稱": "[01]新北市", "地址": {"simple": "[237]新北市三峽區中正路二段399號", "advance": {"locate": {"lat": "24.906955", "lng": "121.363891", "no": "099", "bheigh2": "1", "bcount2": "1", "baddr2": "新北市", "bname2": "三峽區", "village": "大埔里", "road": "中正路二段399號", "msg": "Success", "precision": "100"}}}, "電話": "(02)26723302", "網址": "http://www.mdhs.ntpc.edu.tw", "備註": "", "isLoseResource": false, "level": "高中職"}, {"代碼": "014332", "學校名稱": "市立秀峰高中", "公私立": "公立", "縣市名稱": "[01]新北市", "地址": {"simple": "[221]新北市汐止區忠孝東路201號", "advance": {"locate": {"lat": "25.065667", "lng": "121.660067", "no": "099", "bheigh2": "4", "bcount2": "3", "baddr2": "新北市", "bname2": "汐止區", "village": "秀峰里", "road": "忠孝東路201號", "msg": "Success", "precision": "100"}}}, "電話": "(02)26412134", "網址": "http://www.sfhs.ntpc.edu.tw/default_page.asp", "備註": "", "isLoseResource": false, "level": "高中職"}, {"代碼": "014338", "學校名稱": "市立金山高中", "公私立": "公立", "縣市名稱": "[01]新北市", "地址": {"simple": "[208]新北市金山區美田里文化二路2號", "advance": {"locate": {"lat": "25.22466872", "lng": "121.63693466", "no": "091", "bheigh2": "1", "bcount2": "1", "baddr2": "新北市", "bname2": "金山區", "village": "美田村", "road": "文化二路2號", "msg": "Success", "precision": "100"}}}, "電話": "(02)24982028", "網址": "http://www.cshs.ntpc.edu.tw", "備註": "", "isLoseResource": false, "level": "高中職"}, {"代碼": "014343", "學校名稱": "市立安康高中", "公私立": "公立", "縣市名稱": "[01]新北市", "地址": {"simple": "[231]新北市新店區安興路25號", "advance": {"locate": {"lat": "24.968816", "lng": "121.514908", "no": "096", "bheigh2": "1", "bcount2": "1", "baddr2": "新北市", "bname2": "新店區", "village": "柴埕里", "road": "安興路25號", "msg": "Success", "precision": "100"}}}, "電話": "(02)22111743", "網址": "http://www.akhs.ntpc.edu.tw", "備註": "", "isLoseResource": false, "level": "高中職"}, {"代碼": "014347", "學校名稱": "市立雙溪高中", "公私立": "公立", "縣市名稱": "[01]新北市", "地址": {"simple": "[227]新北市雙溪區梅竹蹊3號", "advance": {"locate": {"lat": "25.03493065", "lng": "121.86316164", "no": "100", "bheigh2": "1", "bcount2": "1", "baddr2": "新北市", "bname2": "雙溪區", "village": "平林村", "road": "梅竹蹊3號", "msg": "Success", "precision": "100"}}}, "電話": "(02)24931028", "網址": "http://www.sxhs.ntpc.edu.tw", "備註": "", "isLoseResource": false, "level": "高中職"}, {"代碼": "014348", "學校名稱": "市立石碇高中", "公私立": "公立", "縣市名稱": "[01]新北市", "地址": {"simple": "[223]新北市石碇區隆盛里八分寮45號", "advance": {"locate": {"lat": "24.99149255", "lng": "121.65829795", "no": "暫無資料", "bheigh2": "暫無資料", "bcount2": "暫無資料", "baddr2": "新北市", "bname2": "石碇區", "village": "", "road": "", "msg": "Success", "precision": "100"}}}, "電話": "(02)26631224", "網址": "http://www.sdhs.ntpc.edu.tw", "備註": "", "isLoseResource": false, "level": "高中職"}, {"代碼": "014353", "學校名稱": "市立丹鳳高中", "公私立": "公立", "縣市名稱": "[01]新北市", "地址": {"simple": "[242]新北市新莊區龍安路72號", "advance": {"locate": {"lat": "25.021204", "lng": "121.416157", "no": "099", "bheigh2": "1", "bcount2": "1", "baddr2": "新北市", "bname2": "新莊區", "village": "龍鳳里", "road": "龍安路72號", "msg": "Success", "precision": "100"}}}, "電話": "(02)29089627", "網址": "http://www.dfsh.ntpc.edu.tw/", "備註": "", "isLoseResource": false, "level": "高中職"}, {"代碼": "014356", "學校名稱": "市立清水高中", "公私立": "公立", "縣市名稱": "[01]新北市", "地址": {"simple": "[236]新北市土城區明德路一段72號", "advance": {"locate": {"lat": "24.982018", "lng": "121.465309", "no": "099", "bheigh2": "1", "bcount2": "1", "baddr2": "新北市", "bname2": "土城區", "village": "永富里", "road": "明德路一段72號", "msg": "Success", "precision": "100"}}}, "電話": "(02)22707801", "網址": "http://www.cssh.ntpc.edu.tw", "備註": "", "isLoseResource": false, "level": "高中職"}, {"代碼": "014357", "學校名稱": "市立三民高中", "公私立": "公立", "縣市名稱": "[01]新北市", "地址": {"simple": "[247]新北市蘆洲區三民路96號", "advance": {"locate": {"lat": "25.086659", "lng": "121.472303", "no": "099", "bheigh2": "1", "bcount2": "1", "baddr2": "新北市", "bname2": "蘆洲區", "village": "保和里", "road": "三民路96號", "msg": "Success", "precision": "100"}}}, "電話": "(02)22894675", "網址": "http://www.smsh.ntpc.edu.tw", "備註": "", "isLoseResource": false, "level": "高中職"}, {"代碼": "014362", "學校名稱": "市立錦和高中", "公私立": "公立", "縣市名稱": "[01]新北市", "地址": {"simple": "[235]新北市中和區錦和路163號", "advance": {"locate": {"lat": "24.992564", "lng": "121.491081", "no": "099", "bheigh2": "1", "bcount2": "1", "baddr2": "新北市", "bname2": "中和區", "village": "錦中里", "road": "錦和路163號", "msg": "Success", "precision": "100"}}}, "電話": "(02)22498566", "網址": "http://www.jhsh.ntpc.edu.tw", "備註": "", "isLoseResource": false, "level": "高中職"}, {"代碼": "014363", "學校名稱": "市立光復高中", "公私立": "公立", "縣市名稱": "[01]新北市", "地址": {"simple": "[220]新北市板橋區光環路一段7號", "advance": {"locate": {"lat": "25.017982", "lng": "121.484377", "no": "暫無資料", "bheigh2": "0", "bcount2": "0", "baddr2": "新北市", "bname2": "板橋區", "village": "富貴里", "road": "光環路一段7號", "msg": "Success", "precision": "100"}}}, "電話": "(02)29582366", "網址": "http://www.gfhs.ntpc.edu.tw/", "備註": "", "isLoseResource": false, "level": "高中職"}, {"代碼": "014364", "學校名稱": "市立竹圍高中", "公私立": "公立", "縣市名稱": "[01]新北市", "地址": {"simple": "[251]新北市淡水區竹林路 35 號", "advance": {"locate": {"lat": "25.138764", "lng": "121.464912", "no": "暫無資料", "bheigh2": "暫無資料", "bcount2": "暫無資料", "baddr2": "新北市", "bname2": "淡水區", "village": "", "road": "竹林路", "msg": "Success", "precision": "100"}}}, "電話": "(02)28096990", "網址": "http://www.zwhs.ntpc.edu.tw/", "備註": "", "isLoseResource": false, "level": "高中職"}, {"代碼": "014381", "學校名稱": "市立北大高級中學", "公私立": "公立", "縣市名稱": "[01]新北市", "地址": {"simple": "[237]新北市三峽區大義路277號", "advance": {"locate": {"lat": "24.948608", "lng": "121.37610565", "no": "暫無資料", "bheigh2": "0", "bcount2": "0", "baddr2": "新北市", "bname2": "三峽區", "village": "龍學里", "road": "大義路277號", "msg": "Success", "precision": "100"}}}, "電話": "(02)26742666", "網址": "http://www.bdsh.ntpc.edu.tw", "備註": "", "isLoseResource": false, "level": "高中職"}, {"代碼": "014399", "學校名稱": "市立豐珠中學", "公私立": "公立", "縣市名稱": "[01]新北市", "地址": {"simple": "[228]新北市貢寮區美豐里雞母嶺街6-6號", "advance": {"locate": {"lat": "25.0658075", "lng": "121.90152177", "no": "093", "bheigh2": "1", "bcount2": "1", "baddr2": "新北市", "bname2": "貢寮區", "village": "美豐村", "road": "雞母嶺街6-6號", "msg": "Success", "precision": "100"}}}, "電話": "(02)24903727", "網址": "http://www.fjjh.ntpc.edu.tw/", "備註": "", "isLoseResource": false, "level": "高中職"}, {"代碼": "014439", "學校名稱": "市立鶯歌工商", "公私立": "公立", "縣市名稱": "[01]新北市", "地址": {"simple": "[239]新北市鶯歌區中正三路154號", "advance": {"locate": {"lat": "24.939285", "lng": "121.334996", "no": "091", "bheigh2": "1", "bcount2": "1", "baddr2": "新北市", "bname2": "鶯歌區", "village": "二橋里", "road": "中正三路154號", "msg": "Success", "precision": "100"}}}, "電話": "(02)26775040", "網址": "http://www.ykvs.ntpc.edu.tw", "備註": "", "isLoseResource": false, "level": "高中職"}, {"代碼": "014468", "學校名稱": "市立樟樹國際實中", "公私立": "公立", "縣市名稱": "[01]新北市", "地址": {"simple": "[221]新北市汐止區樟樹二路135號", "advance": {"locate": {"lat": "25.065856", "lng": "121.639684", "no": "099", "bheigh2": "1", "bcount2": "1", "baddr2": "新北市", "bname2": "汐止區", "village": "忠孝里", "road": "樟樹二路135號", "msg": "Success", "precision": "100"}}}, "電話": "(02)26430686", "網址": "http://www.ctjhs.ntpc.edu.tw/", "備註": "", "isLoseResource": false, "level": "高中職"}, {"代碼": "311401", "學校名稱": "臺北市普林思頓高中", "公私立": "私立", "縣市名稱": "[31]臺北市", "地址": {"simple": "[105]臺北市松山區美仁里寧安街12號", "advance": {"locate": {"lat": "25.049647", "lng": "121.554312", "no": "098", "bheigh2": "1", "bcount2": "1", "baddr2": "台北市", "bname2": "松山區", "village": "美仁里", "road": "寧安街12號", "msg": "Success", "precision": "100"}}}, "電話": "(02)25706767", "網址": "http://www.yudah.tp.edu.tw", "備註": "依臺北市政府教育局109年6月24日北市教中字第10930445082號函同意自109年6月15日起由「臺北市私立育達高級商業家事職業學校」更名為「育達學校財團法人臺北市私立普林思頓高級中等學校」。", "isLoseResource": false, "level": "高中職"}, {"代碼": "313301", "學校名稱": "市立西松高中", "公私立": "公立", "縣市名稱": "[31]臺北市", "地址": {"simple": "[105]臺北市松山區鵬程里健康路325巷7號", "advance": {"locate": {"lat": "25.055581", "lng": "121.567088", "no": "098", "bheigh2": "1", "bcount2": "1", "baddr2": "台北市", "bname2": "松山區", "village": "鵬程里", "road": "健康路325巷7號", "msg": "Success", "precision": "100"}}}, "電話": "(02)25286618", "網址": "http://www.hssh.tp.edu.tw", "備註": "", "isLoseResource": false, "level": "高中職"}, {"代碼": "313302", "學校名稱": "市立中崙高中", "公私立": "公立", "縣市名稱": "[31]臺北市", "地址": {"simple": "[105]臺北市松山區八德路四段101號", "advance": {"locate": {"lat": "25.048673", "lng": "121.560972", "no": "099", "bheigh2": "1", "bcount2": "2", "baddr2": "台北市", "bname2": "松山區", "village": "吉祥里", "road": "八德路四段101號", "msg": "Success", "precision": "100"}}}, "電話": "(02)27535316", "網址": "http://www.zlsh.tp.edu.tw/", "備註": "", "isLoseResource": false, "level": "高中職"}, {"代碼": "321399", "學校名稱": "臺北市私立協和祐德高級中學", "公私立": "私立", "縣市名稱": "[32]臺北市", "地址": {"simple": "[110]臺北市信義區忠孝東路5段790巷27號", "advance": {"locate": {"lat": "25.042626", "lng": "121.583445", "no": "078", "bheigh2": "1", "bcount2": "1", "baddr2": "台北市", "bname2": "信義區", "village": "大道里", "road": "忠孝東路五段790巷27號", "msg": "Success", "precision": "100"}}}, "電話": "(02)27263131", "網址": "http://www.hhvs.tp.edu.tw/", "備註": "", "isLoseResource": false, "level": "高中職"}, {"代碼": "323301", "學校名稱": "市立松山高中", "公私立": "公立", "縣市名稱": "[32]臺北市", "地址": {"simple": "[110]臺北市信義區基隆路一段156號", "advance": {"locate": {"lat": "25.043893", "lng": "121.565775", "no": "086", "bheigh2": "1", "bcount2": "2", "baddr2": "台北市", "bname2": "信義區", "village": "新仁里", "road": "基隆路一段156號", "msg": "Success", "precision": "100"}}}, "電話": "(02)27535968", "網址": "http://www.sssh.tp.edu.tw", "備註": "", "isLoseResource": false, "level": "高中職"}, {"代碼": "323302", "學校名稱": "市立永春高中", "公私立": "公立", "縣市名稱": "[32]臺北市", "地址": {"simple": "[110]臺北市信義區松隆里松山路654號", "advance": {"locate": {"lat": "25.032733", "lng": "121.578631", "no": "101", "bheigh2": "1", "bcount2": "1", "baddr2": "台北市", "bname2": "信義區", "village": "松隆里", "road": "松山路654號", "msg": "Success", "precision": "100"}}}, "電話": "(02)27272983", "網址": "http://www.ycsh.tp.edu.tw", "備註": "", "isLoseResource": false, "level": "高中職"}, {"代碼": "323401", "學校名稱": "市立松山家商", "公私立": "公立", "縣市名稱": "[32]臺北市", "地址": {"simple": "[110]臺北市信義區松山路655號", "advance": {"locate": {"lat": "25.034859", "lng": "121.580123", "no": "092", "bheigh2": "1", "bcount2": "1", "baddr2": "台北市", "bname2": "信義區", "village": "松隆里", "road": "松山路655號", "msg": "Success", "precision": "100"}}}, "電話": "(02)27261118", "網址": "http://www.ssvs.tp.edu.tw", "備註": "", "isLoseResource": false, "level": "高中職"}, {"代碼": "323402", "學校名稱": "市立松山工農", "公私立": "公立", "縣市名稱": "[32]臺北市", "地址": {"simple": "[110]臺北市信義區忠孝東路5段236巷15號", "advance": {"locate": {"lat": "25.039888", "lng": "121.572019", "no": "101", "bheigh2": "1", "bcount2": "1", "baddr2": "台北市", "bname2": "信義區", "village": "廣居里", "road": "忠孝東路五段236巷15號", "msg": "Success", "precision": "100"}}}, "電話": "(02)27226616", "網址": "http://www.saihs.edu.tw", "備註": "", "isLoseResource": false, "level": "高中職"}, {"代碼": "330301", "學校名稱": "國立師大附中", "公私立": "公立", "縣市名稱": "[33]臺北市", "地址": {"simple": "[106]臺北市大安區和安里信義路3段143號", "advance": {"locate": {"lat": "25.033697", "lng": "121.540344", "no": "100", "bheigh2": "0", "bcount2": "0", "baddr2": "台北市", "bname2": "大安區", "village": "和安里", "road": "信義路三段143號", "msg": "Success", "precision": "100"}}}, "電話": "(02)27075215", "網址": "http://www.hs.ntnu.edu.tw", "備註": "", "isLoseResource": false, "level": "高中職"}, {"代碼": "331301", "學校名稱": "私立延平中學", "公私立": "私立", "縣市名稱": "[33]臺北市", "地址": {"simple": "[106]臺北市大安區和安里建國南路1段275號", "advance": {"locate": {"lat": "25.036357", "lng": "121.538365", "no": "079", "bheigh2": "1", "bcount2": "1", "baddr2": "台北市", "bname2": "大安區", "village": "和安里", "road": "建國南路一段275號", "msg": "Success", "precision": "100"}}}, "電話": "(02)27071478", "網址": "http://www.yphs.tp.edu.tw", "備註": "", "isLoseResource": false, "level": "高中職"}, {"代碼": "331302", "學校名稱": "私立金甌女中", "公私立": "私立", "縣市名稱": "[33]臺北市", "地址": {"simple": "[106]臺北市大安區光明里杭州南路2段1號", "advance": {"locate": {"lat": "25.034948", "lng": "121.524218", "no": "080", "bheigh2": "1", "bcount2": "1", "baddr2": "台北市", "bname2": "大安區", "village": "光明里", "road": "杭州南路二段1號", "msg": "Success", "precision": "100"}}}, "電話": "(02)23214765", "網址": "http://www.cogsh.tp.edu.tw", "備註": "", "isLoseResource": false, "level": "高中職"}, {"代碼": "331304", "學校名稱": "私立復興實驗高中", "公私立": "私立", "縣市名稱": "[33]臺北市", "地址": {"simple": "[106]臺北市大安區敦化南路1段262 號", "advance": {"locate": {"lat": "25.048208", "lng": "121.548874", "no": "暫無資料", "bheigh2": "暫無資料", "bcount2": "暫無資料", "baddr2": "台北市", "bname2": "松山區", "village": "", "road": "敦化南路一段", "msg": "Success", "precision": "100"}}},